id_open,name_open,region_open,town_open,add_open,place_id,s_name,rate,comm,types,address,lng,lat,business_status
C1_313020000G_000026,宏亞食品巧克力觀光工廠,桃園市,八德區,桃園縣八德市建國路386號,ChIJ96H7-OoYaDQRfp4Gv9WY3cQ,宏亞食品工廠,4.0,414,"['food', 'point_of_interest', 'store', 'establishment']",334台灣桃園市八德區建國路386號,121.2881995,24.9401053,OPERATIONAL
C1_313020000G_000026,宏亞食品巧克力觀光工廠,桃園市,八德區,桃園縣八德市建國路386號,ChIJ96H7-OoYaDQROPdHKCsGUsg,77巧克力共和國,4.2,8502,"['museum', 'tourist_attraction', 'food', 'point_of_interest', 'store', 'establishment']",334台灣桃園市八德區巧克力街177號,121.2929627,24.9417755,OPERATIONAL
C1_313020000G_000136,臺灣菸酒(股)公司林口觀光酒廠,桃園市,龜山區,桃園縣龜山鄉文化一路55號,ChIJi7XZuD2nQjQRipQbQOBqbJc,臺灣菸酒股份有限公司 桃園酒廠,4.1,1374,"['tourist_attraction', 'point_of_interest', 'food', 'establishment']",333台灣桃園市龜山區文化一路55號,121.3751967,25.0563265,OPERATIONAL
C1_313020000G_000136,臺灣菸酒(股)公司林口觀光酒廠,桃園市,龜山區,桃園縣龜山鄉文化一路55號,ChIJdZ0EkxSnQjQRuKGw9qc3Wt8,臺灣菸酒公司 桃園印刷廠,4.2,23,"['shopping_mall', 'point_of_interest', 'establishment']",333台灣桃園市龜山區文化一路55號,121.3751273,25.0563984,OPERATIONAL
C1_376420000A_000001,蘇澳冷泉公園,宜蘭縣,蘇澳鎮,宜蘭縣270蘇澳鎮冷泉路6-4號,ChIJl46E4DXoZzQRguSwNiYmEyM,蘇澳冷泉公園,3.8,7287,"['park', 'tourist_attraction', 'point_of_interest', 'establishment']",270台灣宜蘭縣蘇澳鎮冷泉路6之4號,121.850703,24.5973124,OPERATIONAL
C1_376420000A_000002,豆腐岬風景區,宜蘭縣,蘇澳鎮,宜蘭縣270蘇澳鎮南方澳漁港東側,ChIJtUP3qTXoZzQRH9XGPtgr2j0,豆腐岬風景區,4.3,6263,"['tourist_attraction', 'point_of_interest', 'establishment']",270台灣宜蘭縣蘇澳鎮,121.8714345,24.583822,OPERATIONAL
C1_376420000A_000003,武荖坑風景區,宜蘭縣,蘇澳鎮,宜蘭縣270蘇澳鎮武荖坑路75號,ChIJTZgZcHboZzQRDdgb5km-Ros,武荖坑風景區,4.2,3172,"['campground', 'park', 'lodging', 'point_of_interest', 'establishment']",270台灣宜蘭縣蘇澳鎮武荖坑路75號,121.8144652,24.6106094,OPERATIONAL
C1_376420000A_000004,南澳農場,宜蘭縣,蘇澳鎮,宜蘭縣270蘇澳鎮270宜蘭縣蘇澳鎮海岸路92號,ChIJucTI28LaZzQR89z3vyumaZk,南澳農場（目前暫停露營）,4.2,757,"['campground', 'park', 'lodging', 'point_of_interest', 'establishment']",270台灣宜蘭縣蘇澳鎮海岸路92號,121.7904369,24.4534174,OPERATIONAL
C1_376420000A_000008,內埤海灣,宜蘭縣,蘇澳鎮,宜蘭縣270蘇澳鎮內埤路(北濱公園旁),ChIJmdhowNnpZzQR-TP-weGF6bk,宜蘭內埤情人灣,4.4,603,"['natural_feature', 'establishment']",270台灣宜蘭縣蘇澳鎮宜蘭內埤情人灣,121.8705989,24.5772293,OPERATIONAL
C1_376420000A_000008,內埤海灣,宜蘭縣,蘇澳鎮,宜蘭縣270蘇澳鎮內埤路(北濱公園旁),ChIJDdsy-tjpZzQRKIdFA283d68,內埤海水浴場,4.3,383,"['natural_feature', 'establishment']",台灣宜蘭縣內埤海水浴場,121.869554,24.5754922,OPERATIONAL
C1_376420000A_000009,頂寮生態公園,宜蘭縣,蘇澳鎮,宜蘭縣270蘇澳鎮頂寮,ChIJibyDQejoZzQReCK_U9UbbVU,頂寮生態公園,3.6,222,"['park', 'tourist_attraction', 'point_of_interest', 'establishment']",270台灣宜蘭縣蘇澳鎮頂寮,121.8427459,24.6394413,CLOSED_TEMPORARILY
C1_376420000A_000010,獅子公園,宜蘭縣,蘇澳鎮,宜蘭縣270蘇澳鎮蘇南公路往南方澳方向路旁(紫竹寺斜對面),ChIJlbz-S8zpZzQRjS4Hu-ru3Tg,蘇澳獅子園,4.0,308,"['tourist_attraction', 'point_of_interest', 'establishment']",270台灣宜蘭縣蘇澳鎮蘇南公路11號,121.8600192,24.5886832,OPERATIONAL
C1_376420000A_000011,東澳灣.粉鳥林漁港,宜蘭縣,蘇澳鎮,宜蘭縣272南澳鄉蘇花路三段東澳灣,ChIJmZBjUaArZjQRroDO79PlpB4,粉鳥林漁港,4.2,9498,"['tourist_attraction', 'point_of_interest', 'establishment']",270台灣宜蘭縣蘇澳鎮蘇花路三段東澳灣,121.8415038,24.4973072,OPERATIONAL
C1_376420000A_000013,朝陽漁港,宜蘭縣,蘇澳鎮,宜蘭縣270蘇澳鎮朝陽路1號附近(朝陽社區內),ChIJLQf1adfEZzQRFF1mW-l9KhY,朝陽漁港,4.3,265,"['natural_feature', 'establishment']",台灣朝陽漁港,121.8211573,24.4610255,
C1_376420000A_000014,朝陽國家步道,宜蘭縣,蘇澳鎮,宜蘭縣270蘇澳鎮朝陽社區內,ChIJ-zlZLCrFZzQRptkEvIm7qx4,朝陽步道,4.1,1864,"['tourist_attraction', 'park', 'point_of_interest', 'establishment']",270台灣宜蘭縣蘇澳鎮龜山山丘上,121.8192249,24.4611582,OPERATIONAL
C1_376420000A_000015,南寧魚市場,宜蘭縣,蘇澳鎮,宜蘭縣270蘇澳鎮內埤路185號,ChIJdcuKz4rpZzQR9JCzXewt_EU,南方澳第一拍賣魚市場,4.0,365,"['point_of_interest', 'establishment']",270台灣宜蘭縣蘇澳鎮漁港路32-2號,121.8686367,24.5827377,OPERATIONAL
C1_376420000A_000015,南寧魚市場,宜蘭縣,蘇澳鎮,宜蘭縣270蘇澳鎮內埤路185號,ChIJ3cUYH-HpZzQRVbFpJ0SzEh4,南方澳魚巿場,3.7,66,"['point_of_interest', 'establishment']",270台灣宜蘭縣蘇澳鎮漁港路12號,121.869225,24.582656,OPERATIONAL
C1_376420000A_000015,南寧魚市場,宜蘭縣,蘇澳鎮,宜蘭縣270蘇澳鎮內埤路185號,ChIJi74WPRrpZzQRgMVgk5UZOjw,南方澳新魚市場,3.9,27,"['point_of_interest', 'establishment']",270台灣宜蘭縣蘇澳鎮漁港路32號,121.8686367,24.5827377,OPERATIONAL
C1_376420000A_000015,南寧魚市場,宜蘭縣,蘇澳鎮,宜蘭縣270蘇澳鎮內埤路185號,ChIJccU_tnvpZzQRASWH4WcheMY,三魚市場,4.3,6,"['point_of_interest', 'establishment']",270台灣宜蘭縣蘇澳鎮漁港路,121.8685561,24.5824689,OPERATIONAL
C1_376420000A_000015,南寧魚市場,宜蘭縣,蘇澳鎮,宜蘭縣270蘇澳鎮內埤路185號,ChIJfVxSVNrpZzQRtmYmsojZ05w,南方澳(南寧市場),4.1,7,"['transit_station', 'point_of_interest', 'establishment']",270台灣宜蘭縣蘇澳鎮,121.8704,24.5806,OPERATIONAL
C1_376420000A_000015,南寧魚市場,宜蘭縣,蘇澳鎮,宜蘭縣270蘇澳鎮內埤路185號,ChIJ72KjedDpZzQRmHASWdiHDFY,南方澳第一漁港（蘇澳漁港）,4.2,101,"['point_of_interest', 'establishment']",270台灣宜蘭縣蘇澳鎮南寧路,121.8674013,24.5819166,OPERATIONAL
C1_376420000A_000015,南寧魚市場,宜蘭縣,蘇澳鎮,宜蘭縣270蘇澳鎮內埤路185號,ChIJ0w4J_NrpZzQRWi0a88VVd6Y,南方澳第二漁港（內埤漁港）,4.0,383,"['point_of_interest', 'food', 'establishment']",270台灣宜蘭縣蘇澳鎮內埤路185-194號,121.8701493,24.5811259,CLOSED_TEMPORARILY
C1_376420000A_000016,砲台山風景區,宜蘭縣,蘇澳鎮,宜蘭縣270蘇澳鎮蘇花公路起點旁,ChIJAQAAQDPoZzQRuVNnGlQBeoU,砲台山風景區,3.9,612,"['tourist_attraction', 'park', 'point_of_interest', 'establishment']",270台灣宜蘭縣蘇澳鎮,121.8569861,24.5932222,OPERATIONAL
C1_376420000A_000016,砲台山風景區,宜蘭縣,蘇澳鎮,宜蘭縣270蘇澳鎮蘇花公路起點旁,ChIJmYPnR8vpZzQRprOfyucqSNE,砲台山觀景台,4.1,44,"['point_of_interest', 'establishment']",270台灣宜蘭縣蘇澳鎮,121.8570071,24.5930183,OPERATIONAL
C1_376420000A_000019,七星嶺步道,宜蘭縣,蘇澳鎮,宜蘭縣270蘇澳鎮冷泉路(主入口位於蘇澳冷泉旁),ChIJ9VsOmE7oZzQR29kXmGOvwJ0,蘇澳七星嶺步道,4.5,425,"['tourist_attraction', 'park', 'point_of_interest', 'establishment']",270台灣宜蘭縣蘇澳鎮,121.8513996,24.5980063,OPERATIONAL
C1_376420000A_000019,七星嶺步道,宜蘭縣,蘇澳鎮,宜蘭縣270蘇澳鎮冷泉路(主入口位於蘇澳冷泉旁),ChIJpYmvxEjoZzQRubTEL6B4ED8,七星嶺步道星嶺公園,4.4,337,"['tourist_attraction', 'point_of_interest', 'establishment']",台灣宜蘭縣蘇澳鎮270,121.8469657,24.6037712,OPERATIONAL
C1_376420000A_000019,七星嶺步道,宜蘭縣,蘇澳鎮,宜蘭縣270蘇澳鎮冷泉路(主入口位於蘇澳冷泉旁),ChIJUfq1ZUzoZzQRVkhKyGpokyA,七星嶺步道-六星觀海,4.6,156,"['point_of_interest', 'establishment']",台灣宜蘭縣蘇澳鎮270,121.852496,24.6026134,OPERATIONAL
C1_376420000A_000019,七星嶺步道,宜蘭縣,蘇澳鎮,宜蘭縣270蘇澳鎮冷泉路(主入口位於蘇澳冷泉旁),ChIJj_qnykvoZzQRHuMTAkUT910,七星嶺步道-四星觀樹,4.2,63,"['tourist_attraction', 'point_of_interest', 'establishment']",台灣宜蘭縣蘇澳鎮270,121.851989,24.600944,OPERATIONAL
C1_376420000A_000019,七星嶺步道,宜蘭縣,蘇澳鎮,宜蘭縣270蘇澳鎮冷泉路(主入口位於蘇澳冷泉旁),ChIJo0-JDkroZzQRiMPti4TKlpU,七星嶺步道- 三星觀山,4.2,43,"['point_of_interest', 'establishment']",270台灣宜蘭縣蘇澳鎮中原路66巷14號號,121.851572,24.598828,OPERATIONAL
C1_376420000A_000019,七星嶺步道,宜蘭縣,蘇澳鎮,宜蘭縣270蘇澳鎮冷泉路(主入口位於蘇澳冷泉旁),ChIJJzcPw0joZzQRMAxnYSdGCFs,七星嶺步道星嶺公園涼亭,4.7,20,"['tourist_attraction', 'point_of_interest', 'establishment']",270台灣宜蘭縣蘇澳鎮,121.8469311,24.6034301,OPERATIONAL
C1_376420000A_000019,七星嶺步道,宜蘭縣,蘇澳鎮,宜蘭縣270蘇澳鎮冷泉路(主入口位於蘇澳冷泉旁),ChIJ8_np6DXoZzQRx5T6qePM81A,七星嶺步道-一星觀泉,3.9,123,"['park', 'point_of_interest', 'establishment']",270台灣宜蘭縣蘇澳鎮中原路66巷,121.851392,24.597314,OPERATIONAL
C1_376420000A_000019,七星嶺步道,宜蘭縣,蘇澳鎮,宜蘭縣270蘇澳鎮冷泉路(主入口位於蘇澳冷泉旁),ChIJReNM_bLpZzQR7lBBxk_cY38,七星嶺步道好漢坡,4.2,6,"['park', 'point_of_interest', 'establishment']",270台灣宜蘭縣蘇澳鎮270,121.8442805,24.6032414,OPERATIONAL
C1_376420000A_000019,七星嶺步道,宜蘭縣,蘇澳鎮,宜蘭縣270蘇澳鎮冷泉路(主入口位於蘇澳冷泉旁),ChIJvRj4pSjpZzQRvcyEQab7DZU,七星嶺步道星嶺公園健康步道入口,4.5,22,"['park', 'point_of_interest', 'establishment']",台灣宜蘭縣蘇澳鎮270,121.8375783,24.6025265,OPERATIONAL
C1_376420000A_000019,七星嶺步道,宜蘭縣,蘇澳鎮,宜蘭縣270蘇澳鎮冷泉路(主入口位於蘇澳冷泉旁),ChIJYzL3lUvoZzQR9J4amVaAp4E,七星嶺步道-五星觀港,4.5,31,"['point_of_interest', 'establishment']",台灣宜蘭縣蘇澳鎮270,121.8522945,24.6021726,OPERATIONAL
C1_376420000A_000019,七星嶺步道,宜蘭縣,蘇澳鎮,宜蘭縣270蘇澳鎮冷泉路(主入口位於蘇澳冷泉旁),ChIJC6RF8DXoZzQRr4qXHdEDwIM,七星嶺步道-二星觀澳,3.7,21,"['park', 'point_of_interest', 'establishment']",270台灣宜蘭縣蘇澳鎮中原路66巷,121.8514051,24.5977459,OPERATIONAL
C1_376420000A_000020,蜡藝彩繪館,宜蘭縣,蘇澳鎮,宜蘭縣270蘇澳鎮德興六路7號,ChIJZ89b0YjoZzQRbzXlPTCEoSU,蜡藝蜡筆城堡,4.2,14287,"['tourist_attraction', 'restaurant', 'point_of_interest', 'food', 'establishment']",270台灣宜蘭縣蘇澳鎮海山西路500號,121.828104,24.6163405,OPERATIONAL
C1_376420000A_000021,白米木屐村,宜蘭縣,蘇澳鎮,宜蘭縣270蘇澳鎮永春路174號,ChIJK4iHkSjoZzQRQQlVPAJ1yY8,白米木屐村辦公處,3.8,98,"['point_of_interest', 'establishment']",270台灣宜蘭縣蘇澳鎮永春路134巷11之1號,121.8453765,24.582654,OPERATIONAL
C1_376420000A_000021,白米木屐村,宜蘭縣,蘇澳鎮,宜蘭縣270蘇澳鎮永春路174號,ChIJbUZhoijoZzQRSTWdc5VIMdk,白米木屐館-保證責任宜蘭縣蘇澳鎮白米社區合作社,3.8,1481,"['museum', 'point_of_interest', 'establishment']",270台灣宜蘭縣蘇澳鎮永春路178號,121.8458579,24.5814072,OPERATIONAL
C1_376420000A_000023,宜蘭餅發明館,宜蘭縣,蘇澳鎮,宜蘭縣270蘇澳鎮海山西路369號,ChIJb6lDH2boZzQR871NrJByho4,宜蘭餅發明館,4.4,20516,"['tourist_attraction', 'bakery', 'food', 'point_of_interest', 'store', 'establishment']",270台灣宜蘭縣蘇澳鎮海山西路369號,121.8291677,24.6145577,OPERATIONAL
C1_376420000A_000024,東方纏工藝館,宜蘭縣,蘇澳鎮,宜蘭縣270蘇澳鎮永光路51號,ChIJcSmqQ0PvZzQRHaXZvOxagCs,東方纏,4.6,25,"['clothing_store', 'point_of_interest', 'store', 'establishment']",268台灣宜蘭縣五結鄉五濱路二段201號,121.8236472,24.6851618,OPERATIONAL
C1_376420000A_000024,東方纏工藝館,宜蘭縣,蘇澳鎮,宜蘭縣270蘇澳鎮永光路51號,ChIJK5NW-jPoZzQRR6jTLvY713c,纏絲工藝,,0,"['point_of_interest', 'establishment']",270台灣宜蘭縣蘇澳鎮永光路,121.8511294,24.592674,CLOSED_PERMANENTLY
C1_376420000A_000024,東方纏工藝館,宜蘭縣,蘇澳鎮,宜蘭縣270蘇澳鎮永光路51號,ChIJZ89b0YjoZzQRLGA0uvsW-64,蠟藝,3.5,4,"['museum', 'point_of_interest', 'establishment']",270台灣宜蘭縣蘇澳鎮德興六路7號,121.8245305,24.6308457,CLOSED_PERMANENTLY
C1_376420000A_000025,後山公路文物館,宜蘭縣,蘇澳鎮,宜蘭縣270蘇澳鎮中山路2段3號,ChIJJegm4T3oZzQRwUa2it_Kc6I,後山公路文物館（預約制，5人以上）,4.2,24,"['museum', 'tourist_attraction', 'point_of_interest', 'establishment']",270台灣宜蘭縣蘇澳鎮中山路二段3號,121.8349568,24.596564,OPERATIONAL
C1_376420000A_000026,討海文化館,宜蘭縣,蘇澳鎮,宜蘭縣270蘇澳鎮跨港路2號,ChIJtWzbZ9DpZzQRCBe38uch6IY,南方澳討海文化館,3.8,152,"['tourist_attraction', 'museum', 'point_of_interest', 'establishment']",270台灣宜蘭縣蘇澳鎮跨港路2號,121.8718737,24.5852491,OPERATIONAL
C1_376420000A_000027,南方澳觀景台旁步道,宜蘭縣,蘇澳鎮,宜蘭縣270蘇澳鎮臺九線蘇花公路108公里,ChIJMYba8knoZzQRGUjgaehywyo,南方澳觀景臺,4.5,8240,"['tourist_attraction', 'point_of_interest', 'establishment']",270台灣宜蘭縣蘇澳鎮蘇花公路,121.8667597,24.5765079,OPERATIONAL
C1_376420000A_000027,南方澳觀景台旁步道,宜蘭縣,蘇澳鎮,宜蘭縣270蘇澳鎮臺九線蘇花公路108公里,ChIJbdeBz37pZzQRstReBuB07tg,南方澳觀景步道,4.6,8,"['park', 'point_of_interest', 'establishment']",270台灣宜蘭縣蘇澳鎮內埤路119號,121.8677005,24.5774086,OPERATIONAL
C1_376420000A_000028,蘇花公路107.6K步道,宜蘭縣,蘇澳鎮,宜蘭縣270蘇澳鎮蘇花公路107.6K步道,ChIJY_70La3DZzQRZNKxeI7Cdxo,蘇花公路安魂碑,4.4,927,"['tourist_attraction', 'point_of_interest', 'establishment']",270台灣宜蘭縣蘇澳鎮蘇花公路114號,121.8655885,24.5311113,OPERATIONAL
C1_376420000A_000028,蘇花公路107.6K步道,宜蘭縣,蘇澳鎮,宜蘭縣270蘇澳鎮蘇花公路107.6K步道,ChIJUfq1ZUzoZzQRVkhKyGpokyA,七星嶺步道-六星觀海,4.6,156,"['point_of_interest', 'establishment']",台灣宜蘭縣蘇澳鎮270,121.852496,24.6026134,OPERATIONAL
C1_376420000A_000028,蘇花公路107.6K步道,宜蘭縣,蘇澳鎮,宜蘭縣270蘇澳鎮蘇花公路107.6K步道,ChIJ9VsOmE7oZzQR29kXmGOvwJ0,蘇澳七星嶺步道,4.5,425,"['tourist_attraction', 'park', 'point_of_interest', 'establishment']",270台灣宜蘭縣蘇澳鎮,121.8513996,24.5980063,OPERATIONAL
C1_376420000A_000028,蘇花公路107.6K步道,宜蘭縣,蘇澳鎮,宜蘭縣270蘇澳鎮蘇花公路107.6K步道,ChIJpYmvxEjoZzQRubTEL6B4ED8,七星嶺步道星嶺公園,4.4,337,"['tourist_attraction', 'point_of_interest', 'establishment']",台灣宜蘭縣蘇澳鎮270,121.8469657,24.6037712,OPERATIONAL
C1_376420000A_000028,蘇花公路107.6K步道,宜蘭縣,蘇澳鎮,宜蘭縣270蘇澳鎮蘇花公路107.6K步道,ChIJFxrJBBnpZzQRA41uV2Erbls,蘇花公路蘇澳段公園,5.0,6,"['park', 'point_of_interest', 'establishment']",270台灣宜蘭縣蘇澳鎮蘇花公路,121.8609316,24.5843022,OPERATIONAL
C1_376420000A_000028,蘇花公路107.6K步道,宜蘭縣,蘇澳鎮,宜蘭縣270蘇澳鎮蘇花公路107.6K步道,ChIJ-zlZLCrFZzQRptkEvIm7qx4,朝陽步道,4.1,1864,"['tourist_attraction', 'park', 'point_of_interest', 'establishment']",270台灣宜蘭縣蘇澳鎮龜山山丘上,121.8192249,24.4611582,OPERATIONAL
C1_376420000A_000028,蘇花公路107.6K步道,宜蘭縣,蘇澳鎮,宜蘭縣270蘇澳鎮蘇花公路107.6K步道,ChIJAdYfs2IrZjQRu9SG_igv4L4,舊蘇花公路（台九丁線）171.1k（清水斷崖）,4.8,61,"['tourist_attraction', 'point_of_interest', 'establishment']",972台灣花蓮縣秀林鄉台9丁線,121.6908272,24.2177724,CLOSED_TEMPORARILY
C1_376420000A_000030,一米特創藝美食館,宜蘭縣,蘇澳鎮,宜蘭縣270蘇澳鎮宜蘭縣蘇澳鎮祥和路199號,ChIJBfuMf2boZzQReixSAifSKpA,一米特米食點心觀光工廠,4.0,6759,"['tourist_attraction', 'grocery_or_supermarket', 'store', 'point_of_interest', 'food', 'establishment']",270台灣宜蘭縣蘇澳鎮祥和路199號,121.830808,24.6171866,OPERATIONAL
C1_376420000A_000031,奇麗灣珍奶文化館,宜蘭縣,蘇澳鎮,宜蘭縣270蘇澳鎮頂強路23號,ChIJE9Hm6u3oZzQRHOcpGbeT_8A,奇麗灣珍奶文化館,4.2,21763,"['museum', 'tourist_attraction', 'point_of_interest', 'establishment']",270台灣宜蘭縣蘇澳鎮頂強路23號,121.83672,24.6342063,OPERATIONAL
C1_376420000A_000032,祝大漁物產文創館,宜蘭縣,蘇澳鎮,宜蘭縣270蘇澳鎮江夏路52-2號,ChIJiYeA6c_pZzQRdLkmO0Blx_Q,祝大漁物產館 ZHU DAYU Culture Museum,3.6,4304,"['tourist_attraction', 'point_of_interest', 'establishment']",270台灣宜蘭縣蘇澳鎮江夏路52-2號,121.86639,24.585263,OPERATIONAL
C1_376420000A_000071,橘之鄉蜜餞形象館,宜蘭縣,宜蘭市,宜蘭縣260宜蘭市梅洲二路33號,ChIJYa-rS0n7ZzQRq6rvo8hKYmg,橘之鄉蜜餞形象館,4.3,6702,"['tourist_attraction', 'point_of_interest', 'establishment']",260台灣宜蘭縣宜蘭市梅洲二路33號,121.7368309,24.7801005,OPERATIONAL
C1_376420000A_000072,亞典蛋糕密碼館,宜蘭縣,宜蘭市,宜蘭縣260宜蘭市梅洲二路122號,ChIJxwxiEU77ZzQRZ3a_KNM6LXg,亞典菓子工場,4.1,15815,"['tourist_attraction', 'bakery', 'store', 'point_of_interest', 'food', 'establishment']",260台灣宜蘭縣宜蘭市梅洲二路122號,121.7320056,24.7809913,OPERATIONAL
C1_376420000A_000073,吳沙故居,宜蘭縣,礁溪鄉,宜蘭縣262礁溪鄉北門巷39號,ChIJcS8qGSL7ZzQRg1e94JtaomY,宜蘭吳沙故居,4.3,398,"['point_of_interest', 'establishment']",262台灣宜蘭縣礁溪鄉北門巷39號,121.759368,24.7881752,OPERATIONAL
C1_376420000A_000075,柴圍佃圳水門公園,宜蘭縣,礁溪鄉,宜蘭縣262礁溪鄉白鵝村(礁溪水利工作站),ChIJiRnm0Rn7ZzQRHN3eaTqBRzM,柴圍佃圳水門公園,3.4,51,"['park', 'tourist_attraction', 'point_of_interest', 'establishment']",262台灣宜蘭縣礁溪鄉四結路33--36號,121.7544104,24.7937978,OPERATIONAL
C1_376420000A_000077,大塭觀光休閒養殖場,宜蘭縣,礁溪鄉,宜蘭縣262礁溪鄉大塭路23之8號,ChIJ0w6pSmz6ZzQRFs2grL9Yfb0,大塭觀光休閒養殖區/輕親魚朶,4.7,2722,"['restaurant', 'point_of_interest', 'food', 'establishment']",262台灣宜蘭縣礁溪鄉玉龍路二段495號,121.7954441,24.8193513,OPERATIONAL
C1_376420000A_000077,大塭觀光休閒養殖場,宜蘭縣,礁溪鄉,宜蘭縣262礁溪鄉大塭路23之8號,ChIJC--YNGz6ZzQRgImFdtynTdk,大塭休閒農場/蘭陽蟳屋餐廳,4.7,3221,"['restaurant', 'point_of_interest', 'food', 'establishment']",262台灣宜蘭縣礁溪鄉玉龍路二段497號,121.7964562,24.8194939,OPERATIONAL
C1_376420000A_000078,金車礁溪蘭花園,宜蘭縣,礁溪鄉,宜蘭縣262礁溪鄉德陽村奇立丹路103-1號,ChIJkemq1Uf6ZzQRz1rnNZRfZqQ,金車礁溪蘭花園附設動植物生態館,4.0,8917,"['tourist_attraction', 'zoo', 'park', 'aquarium', 'point_of_interest', 'establishment']",262台灣宜蘭縣礁溪鄉奇立丹路103-1號,121.784266,24.8207801,OPERATIONAL
C1_376420000A_000078,金車礁溪蘭花園,宜蘭縣,礁溪鄉,宜蘭縣262礁溪鄉德陽村奇立丹路103-1號,ChIJ40LLfEH6ZzQRk0dr0SVHRKI,金車蘭花園礁溪園區停車場,3.6,136,"['parking', 'point_of_interest', 'establishment']",262台灣宜蘭縣礁溪鄉奇立丹路103-1號,121.784368,24.8210016,OPERATIONAL
C1_376420000A_000079,宜蘭甲魚養殖場,宜蘭縣,礁溪鄉,宜蘭縣262礁溪鄉奇立丹路86號,ChIJnwYPYE_6ZzQRS5ZPtsrl66Y,宜蘭養殖場,4.0,4,"['point_of_interest', 'establishment']",26242台灣宜蘭縣礁溪鄉奇立丹路86號,121.7765164,24.8213373,OPERATIONAL
C1_376420000A_000080,金車生技水產養殖研發中心,宜蘭縣,礁溪鄉,宜蘭縣262礁溪鄉淇武蘭路162-13號,ChIJ4XxrOGn6ZzQRNaC6GgG-bMI,金車生技水產養殖研發中心,4.0,10998,"['tourist_attraction', 'zoo', 'aquarium', 'point_of_interest', 'establishment']",262台灣宜蘭縣礁溪鄉淇武蘭路162-13號,121.7936162,24.816999,OPERATIONAL
C1_376420000A_000081,呂美麗精雕藝術館,宜蘭縣,礁溪鄉,宜蘭縣262礁溪鄉德陽村興農路322巷1號,ChIJvREktVz6ZzQRf6hIck9261s,呂美麗精雕藝術館,4.5,567,"['museum', 'point_of_interest', 'establishment']",262002台灣宜蘭縣礁溪鄉興農路322巷1號,121.7835,24.815621,OPERATIONAL
C1_376420000A_000082,二龍河,宜蘭縣,礁溪鄉,宜蘭縣262礁溪鄉二龍村二龍河,ChIJaQRBzq_7ZzQRgB1Md8ncHGI,得子口溪,4.2,9,"['natural_feature', 'establishment']",262台灣宜蘭縣礁溪鄉得子口溪,121.7564956,24.8214195,
C1_376420000A_000083,二五連水門公園,宜蘭縣,礁溪鄉,宜蘭縣262礁溪鄉大塭A區排水門旁,ChIJ58m8Qa_wZzQRWo-3afrm9Oo,二五連水門公園,3.7,120,"['park', 'tourist_attraction', 'point_of_interest', 'establishment']",261台灣宜蘭縣頭城鎮時潮村,121.8118933,24.8299752,OPERATIONAL
C1_376420000A_000084,礁溪蘭花咖啡館,宜蘭縣,礁溪鄉,宜蘭縣262礁溪鄉玉石村玉石路44-5號,ChIJKX6TyEH6ZzQRKkprkHP36yY,伯朗咖啡館 - 礁溪門市,4.3,2247,"['cafe', 'food', 'point_of_interest', 'establishment']",262台灣宜蘭縣礁溪鄉玉石路44-5號,121.7867431,24.8222675,OPERATIONAL
C1_376420000A_000084,礁溪蘭花咖啡館,宜蘭縣,礁溪鄉,宜蘭縣262礁溪鄉玉石村玉石路44-5號,ChIJS9dr38z7ZzQR1MOfyhzoCZc,蘭境咖啡館,4.9,54,"['food', 'point_of_interest', 'store', 'establishment']",262台灣宜蘭縣礁溪鄉公園路33號,121.7759049,24.8306594,OPERATIONAL
C1_376420000A_000085,五峰旗瀑布,宜蘭縣,礁溪鄉,宜蘭縣262礁溪鄉五峰路,ChIJW7uyRL_7ZzQRHZHM7hadNLo,五峰旗瀑布,4.5,1329,"['natural_feature', 'establishment']",262台灣宜蘭縣礁溪鄉五峰旗瀑布,121.7470068,24.8342242,
C1_376420000A_000086,五峰旗聖母朝聖地,宜蘭縣,礁溪鄉,宜蘭縣262礁溪鄉五峰路91巷10號,ChIJW8dCqr_7ZzQRnF1ccABiBLg,五峰旗聖母朝聖地,4.6,4543,"['tourist_attraction', 'church', 'place_of_worship', 'point_of_interest', 'establishment']",26247台灣宜蘭縣礁溪鄉五峰路91巷10號,121.7451,24.8329,OPERATIONAL
C1_376420000A_000088,礁溪站前廣場,宜蘭縣,礁溪鄉,宜蘭縣262礁溪鄉德陽村溫泉路1號,ChIJg9dQ8Df6ZzQR1YGrgYdb4ZY,礁溪地景廣場,4.2,2221,"['tourist_attraction', 'park', 'point_of_interest', 'establishment']",262台灣宜蘭縣礁溪鄉262台灣宜蘭縣礁溪鄉礁溪路五段中山路二段,121.7759893,24.8288596,OPERATIONAL
C1_376420000A_000088,礁溪站前廣場,宜蘭縣,礁溪鄉,宜蘭縣262礁溪鄉德陽村溫泉路1號,ChIJ86DaKjb6ZzQREjjojIctFB0,礁溪溫泉廣場,4.2,994,"['park', 'tourist_attraction', 'point_of_interest', 'establishment']",262台灣宜蘭縣礁溪鄉礁溪路五段156號,121.7736374,24.8287318,OPERATIONAL
C1_376420000A_000088,礁溪站前廣場,宜蘭縣,礁溪鄉,宜蘭縣262礁溪鄉德陽村溫泉路1號,ChIJw7xgWjT7ZzQRm5NT090R8qU,礁溪站前停車場,3.7,32,"['parking', 'point_of_interest', 'establishment']",262台灣宜蘭縣礁溪鄉溫泉路,121.7748798,24.8266188,OPERATIONAL
C1_376420000A_000088,礁溪站前廣場,宜蘭縣,礁溪鄉,宜蘭縣262礁溪鄉德陽村溫泉路1號,ChIJzSB8vyn7ZzQRGsDpoPn_PQU,礁溪迎賓廣場,4.0,5,"['park', 'point_of_interest', 'establishment']",台灣宜蘭縣礁溪鄉礁溪、262,121.7759513,24.8291173,OPERATIONAL
C1_376420000A_000088,礁溪站前廣場,宜蘭縣,礁溪鄉,宜蘭縣262礁溪鄉德陽村溫泉路1號,ChIJQwv29kn6ZzQR8ACrvxU8Mh0,礁溪溫泉公園,4.3,7456,"['tourist_attraction', 'park', 'point_of_interest', 'establishment']",262台灣宜蘭縣礁溪鄉公園路70巷60號,121.7759664,24.8310132,OPERATIONAL
C1_376420000A_000088,礁溪站前廣場,宜蘭縣,礁溪鄉,宜蘭縣262礁溪鄉德陽村溫泉路1號,ChIJo-f1FEj6ZzQR1zNxaie2UZc,礁溪站,4.2,553,"['transit_station', 'train_station', 'point_of_interest', 'establishment']",262台灣宜蘭縣礁溪鄉德陽村溫泉路1號,121.775353,24.827034,OPERATIONAL
C1_376420000A_000089,櫻花陵園,宜蘭縣,礁溪鄉,宜蘭縣262礁溪鄉匏崙村匏杓崙路139-1號,ChIJZ_hx5In8ZzQR57gyQM7Vnmc,櫻花陵園（宜蘭縣立殯葬管理所）,4.2,676,"['cemetery', 'point_of_interest', 'establishment']",262台灣宜蘭縣礁溪鄉雪谷大道1號,121.7039496,24.8233381,OPERATIONAL
C1_376420000A_000090,礁溪溫泉廣場,宜蘭縣,礁溪鄉,宜蘭縣262礁溪鄉礁溪路五段與溫泉路交接口,ChIJ86DaKjb6ZzQREjjojIctFB0,礁溪溫泉廣場,4.2,994,"['park', 'tourist_attraction', 'point_of_interest', 'establishment']",262台灣宜蘭縣礁溪鄉礁溪路五段156號,121.7736374,24.8287318,OPERATIONAL
C1_376420000A_000091,礁溪溫泉地景廣場,宜蘭縣,礁溪鄉,宜蘭縣262礁溪鄉礁溪路五段與中山路二段交接口,ChIJg9dQ8Df6ZzQR1YGrgYdb4ZY,礁溪地景廣場,4.2,2221,"['tourist_attraction', 'park', 'point_of_interest', 'establishment']",262台灣宜蘭縣礁溪鄉262台灣宜蘭縣礁溪鄉礁溪路五段中山路二段,121.7759893,24.8288596,OPERATIONAL
C1_376420000A_000092,湯圍溝溫泉公園(湯圍風呂),宜蘭縣,礁溪鄉,宜蘭縣262礁溪鄉德陽路99之11號,ChIJX8jwBDL7ZzQRfgeOrMZtGgE,湯圍風呂,4.2,57,"['point_of_interest', 'establishment']",262台灣宜蘭縣礁溪鄉德陽路99之11號,121.7700887,24.82863,OPERATIONAL
C1_376420000A_000092,湯圍溝溫泉公園(湯圍風呂),宜蘭縣,礁溪鄉,宜蘭縣262礁溪鄉德陽路99之11號,ChIJ772ubUr6ZzQRuY_2y4RvRrM,湯圍溝溫泉公園,4.2,19750,"['park', 'tourist_attraction', 'spa', 'point_of_interest', 'establishment']",262台灣宜蘭縣礁溪鄉德陽路99-11號,121.7699558,24.8285141,OPERATIONAL
C1_376420000A_000092,湯圍溝溫泉公園(湯圍風呂),宜蘭縣,礁溪鄉,宜蘭縣262礁溪鄉德陽路99之11號,ChIJ_dmPj0n6ZzQRkhpieNFGl2Y,湯圍溝溫泉公園礁溪路側免費泡腳池,4.2,334,"['spa', 'point_of_interest', 'establishment']",262台灣宜蘭縣礁溪鄉,121.7708228,24.8275966,OPERATIONAL
C1_376420000A_000092,湯圍溝溫泉公園(湯圍風呂),宜蘭縣,礁溪鄉,宜蘭縣262礁溪鄉德陽路99之11號,ChIJ9xrWkSD7ZzQRQ9cSzvGqlOY,湯圍溝溫泉公園(礁溪路入口),4.4,49,"['tourist_attraction', 'point_of_interest', 'establishment']",262台灣宜蘭縣礁溪鄉262,121.7717479,24.8269895,OPERATIONAL
C1_376420000A_000092,湯圍溝溫泉公園(湯圍風呂),宜蘭縣,礁溪鄉,宜蘭縣262礁溪鄉德陽路99之11號,ChIJhbUqIkr6ZzQRVqDo0X3G1qk,湯圍溝公共澡堂,4.1,131,"['point_of_interest', 'establishment']",262台灣宜蘭縣礁溪鄉德陽路99之11號,121.7705276,24.8279334,OPERATIONAL
C1_376420000A_000092,湯圍溝溫泉公園(湯圍風呂),宜蘭縣,礁溪鄉,宜蘭縣262礁溪鄉德陽路99之11號,ChIJJ8kE57_7ZzQRya_zDI7BDZE,湯圍溝溫泉公園公開泡腳池,4.4,305,"['park', 'point_of_interest', 'establishment']",262台灣宜蘭縣礁溪鄉,121.771725,24.8272174,OPERATIONAL
C1_376420000A_000095,湯戀物產館,宜蘭縣,礁溪鄉,宜蘭縣262礁溪鄉中山路一段175之1號,ChIJyfdp1036ZzQRhyFLcviQ9P4,礁溪湯戀物產館,4.2,53,"['restaurant', 'point_of_interest', 'food', 'establishment']",262台灣宜蘭縣礁溪鄉,121.7707824,24.8208376,OPERATIONAL
C1_376420000A_000096,猴洞坑瀑布,宜蘭縣,礁溪鄉,宜蘭縣262礁溪鄉白雲村,ChIJO_MKTSH6ZzQRc62tjx_IfU8,猴洞坑瀑布,4.2,5633,"['tourist_attraction', 'point_of_interest', 'establishment']",262台灣宜蘭縣礁溪鄉白石腳路196號,121.7820505,24.8434334,OPERATIONAL
C1_376420000A_000098,佛光大學校園,宜蘭縣,礁溪鄉,宜蘭縣262礁溪鄉林美村林尾路160號,ChIJC_DVbEPvZzQRGp6FOOrm-KQ,佛光大學,4.3,553,"['university', 'point_of_interest', 'establishment']",262307台灣宜蘭縣礁溪鄉林尾路160號,121.7236125,24.8164198,OPERATIONAL
C1_376420000A_000099,淡江大學蘭陽校園,宜蘭縣,礁溪鄉,宜蘭縣262礁溪鄉林美村林尾路180號,ChIJNdAqNIX7ZzQRUJBEbAOPvCo,淡江大學蘭陽校園,4.5,59,"['university', 'point_of_interest', 'establishment']",262台灣宜蘭縣礁溪鄉林尾路180號,121.7290809,24.821851,OPERATIONAL
C1_376420000A_000099,淡江大學蘭陽校園,宜蘭縣,礁溪鄉,宜蘭縣262礁溪鄉林美村林尾路180號,ChIJ93_-D4P7ZzQR_wPPIJzkncw,淡江大學蘭陽校園大門管制站,4.2,133,"['university', 'point_of_interest', 'establishment']",262台灣宜蘭縣礁溪鄉林尾路180號262大門管制站,121.7340961,24.8202811,OPERATIONAL
C1_376420000A_000100,林美石磐步道,宜蘭縣,礁溪鄉,宜蘭縣262礁溪鄉林美村,ChIJNdNOwpv7ZzQR6K_ktSipnsY,林美石磐步道,4.5,8027,"['park', 'tourist_attraction', 'point_of_interest', 'establishment']",262台灣宜蘭縣礁溪鄉林尾路,121.7357007,24.8225555,CLOSED_TEMPORARILY
C1_376420000A_000101,礁溪高爾夫球場,宜蘭縣,礁溪鄉,宜蘭縣262礁溪鄉林美村林尾路156號,ChIJF-JlaKb7ZzQRpKuvrk6aPOY,礁溪高爾夫球場,4.2,989,"['point_of_interest', 'establishment']",262台灣宜蘭縣礁溪鄉林尾路156號,121.7393979,24.824987,OPERATIONAL
C1_376420000A_000102,林美金棗文化館,宜蘭縣,礁溪鄉,宜蘭縣262礁溪鄉林尾路139-2號,ChIJYdT_Faf7ZzQRc-NfATdn8vQ,金棗文化館,3.9,131,"['point_of_interest', 'establishment']",262台灣宜蘭縣礁溪鄉林尾路139之2號,121.7494359,24.8147912,OPERATIONAL
C1_376420000A_000104,龍潭湖風景區,宜蘭縣,礁溪鄉,宜蘭縣262礁溪鄉礁溪鄉龍潭村環湖路1號,ChIJ0V0FLUD7ZzQRsRgQZiLXBfE,龍潭湖公園,4.3,3838,"['park', 'tourist_attraction', 'point_of_interest', 'establishment']",262台灣宜蘭縣礁溪鄉環湖道路1號,121.740087,24.7920077,OPERATIONAL
C1_376420000A_000104,龍潭湖風景區,宜蘭縣,礁溪鄉,宜蘭縣262礁溪鄉礁溪鄉龍潭村環湖路1號,ChIJla64tn37ZzQRSv_WxovONLY,龍潭湖,4.3,984,"['tourist_attraction', 'point_of_interest', 'establishment']",262台灣宜蘭縣礁溪鄉環湖道路1號,121.7404703,24.7954313,OPERATIONAL
C1_376420000A_000104,龍潭湖風景區,宜蘭縣,礁溪鄉,宜蘭縣262礁溪鄉礁溪鄉龍潭村環湖路1號,ChIJsR3r9GL7ZzQRTNiOm8uNbNk,Herbelle龍潭湖畔悠活園區,4.0,4827,"['tourist_attraction', 'point_of_interest', 'establishment']",262台灣宜蘭縣礁溪鄉漳福路155號,121.7400597,24.7906536,OPERATIONAL
C1_376420000A_000232,幾米廣場,宜蘭縣,宜蘭市,宜蘭縣260宜蘭市宜興路一段240號,ChIJdTXpxtvkZzQRYSmxKq3qjSI,宜蘭幾米公園,4.1,16577,"['park', 'point_of_interest', 'establishment']",260台灣宜蘭縣宜蘭市宜興路一段240號,121.7570038,24.7526264,OPERATIONAL
C1_376420000A_000232,幾米廣場,宜蘭縣,宜蘭市,宜蘭縣260宜蘭市宜興路一段240號,ChIJf9oXY9zkZzQR5FIpJ9WpOis,幾米廣場,4.3,351,"['park', 'point_of_interest', 'establishment']",260台灣宜蘭縣宜蘭市宜興路一段116號,121.7568203,24.7523436,OPERATIONAL
C1_376420000A_000233,東門夜市,宜蘭縣,宜蘭市,宜蘭縣260宜蘭市和睦路,ChIJ2WCYo-zkZzQRB9EeK1RWmBs,宜蘭東門觀光夜市,4.0,19877,"['tourist_attraction', 'point_of_interest', 'establishment']",260台灣宜蘭縣宜蘭市聖後街,121.7584576,24.7581411,OPERATIONAL
C1_376420000A_000234,頭城老街,宜蘭縣,頭城鎮,宜蘭縣261頭城鎮和平街,ChIJZZ9djkL3ZzQRF9H_SPRrAfo,頭城老街,3.9,9254,"['tourist_attraction', 'point_of_interest', 'establishment']",261台灣宜蘭縣頭城鎮和平街,121.8241581,24.8569701,OPERATIONAL
C1_376420000A_000234,頭城老街,宜蘭縣,頭城鎮,宜蘭縣261頭城鎮和平街,ChIJr83UF2T3ZzQRELYcs--W5q0,頭城老街藝術巷,4.4,35,"['point_of_interest', 'establishment']",261台灣宜蘭縣頭城鎮青雲路三段103號,121.8241557,24.8563558,OPERATIONAL
C1_376420000A_000234,頭城老街,宜蘭縣,頭城鎮,宜蘭縣261頭城鎮和平街,ChIJ5UlKI0P3ZzQRYITuGj0xfiQ,頭城老街南門路出入口,3.9,274,"['point_of_interest', 'establishment']",261台灣宜蘭縣頭城鎮南門路12號,121.8231875,24.8558748,OPERATIONAL
C1_376420000A_000246,羅東夜市,宜蘭縣,羅東鎮,宜蘭縣265羅東鎮公園路,ChIJrw3A9X3mZzQRa6_ZjGQS3Sk,羅東觀光夜市,4.1,22304,"['tourist_attraction', 'point_of_interest', 'establishment']",265台灣宜蘭縣羅東鎮興東路與民權路口,121.7682201,24.6773245,OPERATIONAL
C1_376420000A_000246,羅東夜市,宜蘭縣,羅東鎮,宜蘭縣265羅東鎮公園路,ChIJ7-fBLnzmZzQRBOctcRD1XzM,羅東夜市(民權路),4.3,453,"['point_of_interest', 'establishment']",265台灣宜蘭縣羅東鎮民權路265號,121.769867,24.675424,OPERATIONAL
C1_376420000A_000246,羅東夜市,宜蘭縣,羅東鎮,宜蘭縣265羅東鎮公園路,ChIJbzyRFYjnZzQRNP20_OrHS4w,魚蛋達人羅東夜市,3.0,28,"['point_of_interest', 'establishment']",265台灣宜蘭縣羅東鎮265民權路1100號攤,121.7685428,24.6758839,OPERATIONAL
C1_376420000A_000246,羅東夜市,宜蘭縣,羅東鎮,宜蘭縣265羅東鎮公園路,ChIJVZAlfn7mZzQR6iJM7If84l8,羅東夜市(中山公園),3.5,4,"['transit_station', 'point_of_interest', 'establishment']",265台灣宜蘭縣羅東鎮,121.767955,24.6764925,OPERATIONAL
C1_376420000A_000246,羅東夜市,宜蘭縣,羅東鎮,宜蘭縣265羅東鎮公園路,ChIJAUTw3HTnZzQROEXr-T6KHos,在地人 甘草芭樂羅東夜市總店（羅東美食 羅東夜市 宜蘭美食 宜蘭夜市 羅東必吃 宜蘭必吃 現切水果 新鮮水果 當季水果 ）,4.5,2,"['point_of_interest', 'establishment']",265台灣宜蘭縣羅東鎮羅東夜市牛排旁,121.770825,24.6755872,OPERATIONAL
C1_376420000A_000246,羅東夜市,宜蘭縣,羅東鎮,宜蘭縣265羅東鎮公園路,ChIJq1p15KrnZzQRR5FKdqMfGjk,鮑在我身上,4.8,44,"['point_of_interest', 'establishment']",265台灣宜蘭縣羅東鎮民權路85號,121.769181,24.675538,OPERATIONAL
C1_376420000A_000246,羅東夜市,宜蘭縣,羅東鎮,宜蘭縣265羅東鎮公園路,ChIJg2AjYH7mZzQRun5B9jaYKtE,夜市之家,4.7,152,"['point_of_interest', 'establishment']",265台灣宜蘭縣羅東鎮民生路100號二樓,121.7680014,24.6774173,OPERATIONAL
C1_376420000A_000246,羅東夜市,宜蘭縣,羅東鎮,宜蘭縣265羅東鎮公園路,ChIJsct5gH7mZzQRQ6zzOCo51pE,羅東夜市(中山公園),4.1,40,"['transit_station', 'point_of_interest', 'establishment']",265台灣宜蘭縣羅東鎮,121.76803,24.67642,OPERATIONAL
C1_376420000A_000246,羅東夜市,宜蘭縣,羅東鎮,宜蘭縣265羅東鎮公園路,ChIJRfcuvOfnZzQRnK0IawnFCZI,羅東夜市民宿_可星,3.4,14,"['lodging', 'point_of_interest', 'establishment']",265台灣宜蘭縣羅東鎮浮崙巷71號,121.7668202,24.6757417,OPERATIONAL
C1_376420000A_000246,羅東夜市,宜蘭縣,羅東鎮,宜蘭縣265羅東鎮公園路,ChIJbT5WY37mZzQR5KbKOLWm4QE,羅東夜市停車場,3.9,362,"['parking', 'point_of_interest', 'establishment']",265台灣宜蘭縣羅東鎮興東路,121.7679672,24.6768918,OPERATIONAL
C1_376420000A_000246,羅東夜市,宜蘭縣,羅東鎮,宜蘭縣265羅東鎮公園路,ChIJjbkbmn7mZzQRghZgDd5E9pE,羅東中山公園,4.1,702,"['tourist_attraction', 'park', 'point_of_interest', 'establishment']",265台灣宜蘭縣羅東鎮民生路58-60號,121.769023,24.676638,OPERATIONAL
C1_376420000A_000246,羅東夜市,宜蘭縣,羅東鎮,宜蘭縣265羅東鎮公園路,ChIJzZUPnJvnZzQRLHWHVpiJitQ,小時候彈珠堂-宜蘭羅東夜市,5.0,3974,"['point_of_interest', 'store', 'establishment']",265台灣宜蘭縣羅東鎮民權路111之1號,121.7683697,24.6757644,OPERATIONAL
C1_376420000A_000246,羅東夜市,宜蘭縣,羅東鎮,宜蘭縣265羅東鎮公園路,ChIJ2WCYo-zkZzQRB9EeK1RWmBs,宜蘭東門觀光夜市,4.0,19877,"['tourist_attraction', 'point_of_interest', 'establishment']",260台灣宜蘭縣宜蘭市聖後街,121.7584576,24.7581411,OPERATIONAL
C1_376420000A_000246,羅東夜市,宜蘭縣,羅東鎮,宜蘭縣265羅東鎮公園路,ChIJ7we_KHzmZzQR_-C0voF6wJA,羅東東山鴨頭,3.3,102,"['point_of_interest', 'establishment']",265台灣宜蘭縣羅東鎮民權路110號攤 號 1098),121.7686167,24.6758679,OPERATIONAL
C1_376420000A_000246,羅東夜市,宜蘭縣,羅東鎮,宜蘭縣265羅東鎮公園路,ChIJ3fINfn7mZzQRtx4saBe32qE,羅東夜市(中山公園),4.2,31,"['transit_station', 'point_of_interest', 'establishment']",265台灣宜蘭縣羅東鎮,121.76788,24.67659,OPERATIONAL
C1_376420000A_000246,羅東夜市,宜蘭縣,羅東鎮,宜蘭縣265羅東鎮公園路,ChIJD_EWDovmZzQRFlbEcXbdCSk,清溝夜市,4.4,5535,"['tourist_attraction', 'point_of_interest', 'establishment']",269台灣宜蘭縣冬山鄉清溝路153號,121.761295,24.66399,OPERATIONAL
C1_376420000A_000246,羅東夜市,宜蘭縣,羅東鎮,宜蘭縣265羅東鎮公園路,ChIJ_wCp0nPnZzQR0Nmw6mlCQ6U,阿公仔龍鳳腿春捲｜羅東夜市美食｜羅東夜市必吃推薦｜宜蘭羅東夜市小吃｜必吃排隊美食,3.4,160,"['point_of_interest', 'store', 'food', 'establishment']",265台灣宜蘭縣羅東鎮民生路與號興東路口攤位(宜蘭羅東夜市入口,121.7683723,24.677238,OPERATIONAL
C1_376420000A_000246,羅東夜市,宜蘭縣,羅東鎮,宜蘭縣265羅東鎮公園路,ChIJzecSTHnmZzQRR2s0YSlNB2A,羅東民生市場,4.0,2317,"['point_of_interest', 'establishment']",265台灣宜蘭縣羅東鎮民生路6號,121.7709493,24.6765804,OPERATIONAL
C1_376420000A_000246,羅東夜市,宜蘭縣,羅東鎮,宜蘭縣265羅東鎮公園路,ChIJTf8Z033mZzQRX0F9yzIhXH4,Lady M 女人M (羅東夜市口),2.9,19,"['lodging', 'point_of_interest', 'establishment']",265台灣宜蘭縣羅東鎮興東路6-5號,121.7678739,24.6758447,OPERATIONAL
C1_376420000A_000246,羅東夜市,宜蘭縣,羅東鎮,宜蘭縣265羅東鎮公園路,ChIJ9U7j5HvmZzQRsIJNlLu8u_Y,羊舖子當歸羊肉湯,3.5,1641,"['restaurant', 'point_of_interest', 'food', 'establishment']",265台灣宜蘭縣羅東鎮民權路110號,121.7686693,24.6758774,OPERATIONAL
C1_376420000A_000247,羅東運動公園,宜蘭縣,羅東鎮,宜蘭縣265羅東鎮公正路666號,ChIJE4WsL53mZzQRm2HtxX4Hotk,羅東運動公園,4.6,9567,"['park', 'tourist_attraction', 'point_of_interest', 'establishment']",265台灣宜蘭縣羅東鎮公正路666號,121.7531973,24.6829214,OPERATIONAL
C1_376420000A_000247,羅東運動公園,宜蘭縣,羅東鎮,宜蘭縣265羅東鎮公正路666號,ChIJ41JoGojmZzQRqeDDhsQdMuQ,羅東極限運動場,4.1,1362,"['point_of_interest', 'establishment']",265台灣宜蘭縣羅東鎮,121.764656,24.6720027,OPERATIONAL
C1_376420000A_000247,羅東運動公園,宜蘭縣,羅東鎮,宜蘭縣265羅東鎮公正路666號,ChIJR_I4YILmZzQRmijPLPyNOug,羅東運動公園 東丘 落羽松,4.5,11710,"['tourist_attraction', 'point_of_interest', 'establishment']",265台灣宜蘭縣羅東鎮公正路666號,121.7575195,24.6827656,OPERATIONAL
C1_376420000A_000247,羅東運動公園,宜蘭縣,羅東鎮,宜蘭縣265羅東鎮公正路666號,ChIJMRmduJzmZzQR21qa4UrZ8qU,羅東運動公園,4.5,97,"['transit_station', 'point_of_interest', 'establishment']",265台灣宜蘭縣羅東鎮,121.753425,24.680461,OPERATIONAL
C1_376420000A_000247,羅東運動公園,宜蘭縣,羅東鎮,宜蘭縣265羅東鎮公正路666號,ChIJiUJpryfkZzQRlMo4G26i2MU,羅東運動公園綜合球場,4.4,53,"['point_of_interest', 'establishment']",265台灣宜蘭縣羅東鎮公正路666號,121.7513533,24.6875278,OPERATIONAL
C1_376420000A_000247,羅東運動公園,宜蘭縣,羅東鎮,宜蘭縣265羅東鎮公正路666號,ChIJVVVV2ILmZzQRvAYjNzxSTns,羅東運動公園虹明湖,4.6,159,"['park', 'tourist_attraction', 'point_of_interest', 'establishment']",265台灣宜蘭縣羅東鎮虹 明湖,121.7546307,24.6822274,OPERATIONAL
C1_376420000A_000247,羅東運動公園,宜蘭縣,羅東鎮,宜蘭縣265羅東鎮公正路666號,ChIJfbceN5zmZzQRHEC47MiVn2A,宜蘭縣立羅東運動公園棒球場,4.2,146,"['point_of_interest', 'establishment']",265台灣宜蘭縣羅東鎮公正路666號,121.7495228,24.6833688,OPERATIONAL
C1_376420000A_000247,羅東運動公園,宜蘭縣,羅東鎮,宜蘭縣265羅東鎮公正路666號,ChIJHQa2fTznZzQRbioPEBhYcaU,羅東運動公園兒童遊戲區,4.8,16,"['park', 'point_of_interest', 'establishment']",265台灣宜蘭縣羅東鎮公正路666號,121.7519731,24.6825204,OPERATIONAL
C1_376420000A_000247,羅東運動公園,宜蘭縣,羅東鎮,宜蘭縣265羅東鎮公正路666號,ChIJg7aGXC7nZzQRnA8MqKNpDDE,羅東運動公園,4.9,10,"['restaurant', 'food', 'point_of_interest', 'establishment']",265台灣宜蘭縣羅東鎮,121.7528376,24.6812358,OPERATIONAL
C1_376420000A_000247,羅東運動公園,宜蘭縣,羅東鎮,宜蘭縣265羅東鎮公正路666號,ChIJhamZx5zmZzQROz2PlctTvZM,羅東運動公園P1停車場,4.4,60,"['parking', 'point_of_interest', 'establishment']",265台灣宜蘭縣羅東鎮羅東運動公園停車場二,121.752884,24.681218,OPERATIONAL
C1_376420000A_000247,羅東運動公園,宜蘭縣,羅東鎮,宜蘭縣265羅東鎮公正路666號,ChIJIRQQunDlZzQRz3WfwLkS9so,羅東運動公園田徑場,5.0,7,"['park', 'point_of_interest', 'establishment']",265台灣宜蘭縣羅東鎮,121.7503203,24.6854248,OPERATIONAL
C1_376420000A_000247,羅東運動公園,宜蘭縣,羅東鎮,宜蘭縣265羅東鎮公正路666號,ChIJaWPGGnvlZzQRV8SCnIkJfrs,羅東運動公園停車場四,4.8,4,"['park', 'point_of_interest', 'establishment']",265台灣宜蘭縣羅東鎮四維路116號,121.7522705,24.6862754,OPERATIONAL
C1_376420000A_000247,羅東運動公園,宜蘭縣,羅東鎮,宜蘭縣265羅東鎮公正路666號,ChIJLbZvrpzmZzQRvMxELTrkc9E,羅東運動公園,,0,"['transit_station', 'point_of_interest', 'establishment']",265台灣宜蘭縣羅東鎮,121.753334,24.680263,OPERATIONAL
C1_376420000A_000247,羅東運動公園,宜蘭縣,羅東鎮,宜蘭縣265羅東鎮公正路666號,ChIJccU88JzmZzQRge7hQmoEgWQ,羅東運動公園,,0,"['transit_station', 'point_of_interest', 'establishment']",265台灣宜蘭縣羅東鎮,121.751556,24.682025,OPERATIONAL
C1_376420000A_000247,羅東運動公園,宜蘭縣,羅東鎮,宜蘭縣265羅東鎮公正路666號,ChIJ65YhiOLnZzQRzqpFrGXF05k,羅東運動公園濕生植物區,4.6,26,"['park', 'point_of_interest', 'establishment']",265台灣宜蘭縣羅東鎮,121.7556867,24.6820773,OPERATIONAL
C1_376420000A_000247,羅東運動公園,宜蘭縣,羅東鎮,宜蘭縣265羅東鎮公正路666號,ChIJm3odyZzmZzQR0j7c5JJQusA,羅東運動公園游泳池,4.2,279,"['point_of_interest', 'establishment']",265台灣宜蘭縣羅東鎮公正路666號,121.7526458,24.6819305,CLOSED_TEMPORARILY
C1_376420000A_000248,宜蘭河濱公園,宜蘭縣,宜蘭市,宜蘭縣260宜蘭市環河路,ChIJJSKrw9PkZzQRGHa6tlIuCeQ,宜蘭河濱公園,4.3,2280,"['park', 'tourist_attraction', 'point_of_interest', 'establishment']",260台灣宜蘭縣宜蘭市環河東路,121.7562333,24.7648206,OPERATIONAL
C1_376420000A_000249,天送埤車站,宜蘭縣,三星鄉,宜蘭縣266三星鄉福山街福山橫巷27號,ChIJv9Zg2JoKaDQRg65t8xklfV8,天送埤林鐵文創園區（太平山林鐵）,4.0,8690,"['tourist_attraction', 'point_of_interest', 'establishment']",266台灣宜蘭縣三星鄉福山街福山橫巷37號,121.6193472,24.6626851,OPERATIONAL
C1_376420000A_000251,清水地熱公園,宜蘭縣,大同鄉,宜蘭縣267大同鄉三星路八段501巷139號,ChIJVVVVVRVxaDQRDc3Y8MyRVlE,清水地熱公園,4.4,22764,"['tourist_attraction', 'park', 'point_of_interest', 'establishment']",267台灣宜蘭縣大同鄉三星路八段501巷150號,121.6365653,24.6118089,OPERATIONAL
C1_376420000A_000252,寒溪吊橋,宜蘭縣,大同鄉,宜蘭縣267大同鄉寒溪村,ChIJt8PkUCbeZzQRxi5SaVdNt6Q,267宜蘭縣大同鄉寒溪吊橋,,0,['route'],267台灣宜蘭縣大同鄉寒溪吊橋,121.6876755,24.6123432,
C1_376420000A_000253,石牌縣界公園,新北市,坪林區,宜蘭縣261頭城鎮北宜公路56.5km處,ChIJt1mRK3X5ZzQRB8RVEtf6ELQ,石牌縣界公園,4.5,3357,"['tourist_attraction', 'park', 'point_of_interest', 'establishment']",232台灣宜蘭縣坪林區頭城鎮北宜公路56.5km處,121.7752298,24.8650075,OPERATIONAL
C1_376420000A_000254,中興文化創意園區,宜蘭縣,五結鄉,宜蘭縣268五結鄉中正路二段6-8號,ChIJkYBhy83lZzQRyqzQY4ByOGQ,中興文化創意園區,4.2,11100,"['museum', 'point_of_interest', 'establishment']",268台灣宜蘭縣五結鄉中正路二段6之8號,121.7710752,24.6942978,OPERATIONAL
C1_376420000A_000255,宜蘭運動公園,宜蘭縣,宜蘭市,宜蘭縣260宜蘭市中山路一段755號,ChIJw0XSCuXkZzQRIg4juN22z6E,宜蘭運動公園,4.4,6153,"['park', 'tourist_attraction', 'point_of_interest', 'establishment']",26060台灣宜蘭縣宜蘭市中山路一段755號,121.7525,24.7380556,OPERATIONAL
C1_376420000A_000255,宜蘭運動公園,宜蘭縣,宜蘭市,宜蘭縣260宜蘭市中山路一段755號,ChIJw0XSCuXkZzQRgNaJtOnb-xk,宜蘭運動公園體育館,4.4,606,"['stadium', 'point_of_interest', 'establishment']",260台灣宜蘭縣宜蘭市中山路一段755號,121.75518,24.740097,OPERATIONAL
C1_376420000A_000255,宜蘭運動公園,宜蘭縣,宜蘭市,宜蘭縣260宜蘭市中山路一段755號,ChIJa9u5veXkZzQR-NAMJ6rwffc,宜蘭運動公園-親子場地,4.3,52,"['point_of_interest', 'establishment']",260台灣宜蘭縣宜蘭市公園路471號,121.7557517,24.7409163,OPERATIONAL
C1_376420000A_000256,宜蘭伯朗大道,宜蘭縣,冬山鄉,宜蘭縣269冬山鄉三德路395號,ChIJNd4uXproZzQRxz7YvvxXFDE,宜蘭三奇美徑(冬山伯朗大道),3.9,6929,"['tourist_attraction', 'point_of_interest', 'establishment']",269台灣宜蘭縣冬山鄉三奉路77號,121.8144542,24.645495,OPERATIONAL
C1_376420000A_000256,宜蘭伯朗大道,宜蘭縣,冬山鄉,宜蘭縣269冬山鄉三德路395號,ChIJE_7UzLTnZzQRAIVbuJ3ybBQ,冬山河伯朗大道,4.1,129,"['tourist_attraction', 'point_of_interest', 'establishment']",269台灣宜蘭縣冬山鄉義成橋,121.8146115,24.6461246,OPERATIONAL
C1_376420000A_000259,冬山河生態綠舟,宜蘭縣,冬山鄉,宜蘭縣269冬山鄉冬山路二段172號,ChIJnZcO8jXmZzQRBLiQt-TL26M,冬山河生態綠舟,4.3,10139,"['park', 'tourist_attraction', 'point_of_interest', 'establishment']",269台灣宜蘭縣冬山鄉冬山路二段172號,121.78828,24.638719,OPERATIONAL
C1_376420000A_000259,冬山河生態綠舟,宜蘭縣,冬山鄉,宜蘭縣269冬山鄉冬山路二段172號,ChIJQ4dezLTnZzQRJ_Xf3v_WSeA,冬山河-水行俠電動船/生態綠舟,5.0,835,"['point_of_interest', 'establishment']",269台灣宜蘭縣冬山鄉冬山路二段172號,121.7881972,24.6387283,OPERATIONAL
C1_376420000A_000259,冬山河生態綠舟,宜蘭縣,冬山鄉,宜蘭縣269冬山鄉冬山路二段172號,ChIJkQtYb1nnZzQR06gVCRpEkbQ,冬山河生態綠舟電動小船搭乘處,4.2,40,"['tourist_attraction', 'point_of_interest', 'establishment']",269台灣宜蘭縣冬山鄉冬山路二段,121.7875313,24.6406352,OPERATIONAL
C1_376420000A_000259,冬山河生態綠舟,宜蘭縣,冬山鄉,宜蘭縣269冬山鄉冬山路二段172號,ChIJ3xIC6TXmZzQRk6_XB7oa6F0,冬山森林公園生態綠舟,4.4,159,"['point_of_interest', 'establishment']",台灣宜蘭縣冬山鄉,121.789143,24.638679,OPERATIONAL
C1_376420000A_000311,宜蘭文學館,宜蘭縣,宜蘭市,宜蘭縣260宜蘭市舊城南路縣府二巷19號,ChIJ2UlVcMTkZzQRWeDcngOvOlA,宜蘭文學館,4.1,1313,"['museum', 'tourist_attraction', 'point_of_interest', 'establishment']",260台灣宜蘭縣宜蘭市舊城南路縣府二巷19號,121.749406,24.7550209,OPERATIONAL
C1_376420000A_000312,宜蘭設治紀念館,宜蘭縣,宜蘭市,宜蘭縣260宜蘭市舊城南路力行三巷3號,ChIJC_DVbEPvZzQRXuKuQ79CIGA,宜蘭設治紀念館,4.3,2936,"['tourist_attraction', 'point_of_interest', 'establishment']",260台灣宜蘭縣宜蘭市舊城南路力行3巷3號,121.7495415,24.755325,OPERATIONAL
C1_376420000A_000313,台灣戲劇館,宜蘭縣,宜蘭市,宜蘭縣260宜蘭市復興路二段101號,ChIJAQAAANDkZzQR0iRoOtVyxO0,臺灣戲劇館,4.1,718,"['museum', 'tourist_attraction', 'point_of_interest', 'establishment']",260台灣宜蘭縣宜蘭市復興路二段101號閉館中 宜蘭市中山路三段1號(暫駐場所,121.745215,24.7489694,OPERATIONAL
C1_376420000A_000313,台灣戲劇館,宜蘭縣,宜蘭市,宜蘭縣260宜蘭市復興路二段101號,ChIJVTBXopvlZzQRvyi7jOkCG0s,台灣戲劇館,4.8,9,"['museum', 'point_of_interest', 'establishment']",260台灣宜蘭縣宜蘭市中山路三段1號,121.7517547,24.7548647,OPERATIONAL
C1_376420000A_000314,宜蘭美術館,宜蘭縣,宜蘭市,宜蘭縣260宜蘭市中山路三段1號,ChIJMyZ6msTkZzQR-ihlfGlEKDw,宜蘭美術館,4.4,855,"['museum', 'tourist_attraction', 'point_of_interest', 'establishment']",260台灣宜蘭縣宜蘭市中山路三段1號,121.7517871,24.7549228,OPERATIONAL
C1_376420000A_000316,宜蘭酒廠(甲子蘭酒文物館),宜蘭縣,宜蘭市,宜蘭縣260宜蘭市舊城西路3號,ChIJWUkzSMTkZzQR39me2A_ZYBI,甲子蘭酒文物館,3.9,7320,"['museum', 'tourist_attraction', 'point_of_interest', 'establishment']",260台灣宜蘭縣宜蘭市舊城西路3號,121.7490966,24.7569274,OPERATIONAL
C1_376420000A_000328,羅東文化工場,宜蘭縣,羅東鎮,宜蘭縣265羅東鎮純精路一段96號,ChIJv4AbDojmZzQR0aMfle7r4MU,羅東文化工場,4.3,4078,"['tourist_attraction', 'point_of_interest', 'establishment']",265台灣宜蘭縣羅東鎮純精路一段96號,121.7645683,24.6718652,OPERATIONAL
C1_376420000A_000335,二結庄生活文化館,宜蘭縣,五結鄉,宜蘭縣268五結鄉鎮安村舊街路98號,ChIJ9Sbnk7PlZzQR7giX4sssNWk,二結庄生活文化館,4.1,26,"['tourist_attraction', 'point_of_interest', 'establishment']",台灣宜蘭縣五結鄉舊街一路80號268,121.768797,24.7083011,CLOSED_TEMPORARILY
C1_376420000A_000339,宜蘭河自行車道,宜蘭縣,宜蘭市,宜蘭縣260宜蘭市環河路,ChIJszdwsILkZzQR91URlClDF_I,宜蘭河自行車道,4.3,12,"['point_of_interest', 'establishment']",台灣宜蘭縣員山鄉,121.7192779,24.745095,OPERATIONAL
C1_376420000A_000341,濱海自行車道,宜蘭縣,壯圍鄉,宜蘭縣263壯圍鄉,ChIJ_____6_6ZzQRw2WYmf7iED4,宜蘭北濱濱海自行車道,4.4,44,"['point_of_interest', 'establishment']",263台灣宜蘭縣壯圍鄉永 鎮 海邊,121.8167328,24.7787419,OPERATIONAL
C1_376420000A_000341,濱海自行車道,宜蘭縣,壯圍鄉,宜蘭縣263壯圍鄉,ChIJz89XeZnvZzQR0MLQbTbPLaU,壯圍濱海自行車道,3.9,27,"['point_of_interest', 'establishment']",263台灣宜蘭縣壯圍鄉,121.828184,24.717409,OPERATIONAL
C1_376420000A_000343,安農溪自行車道,宜蘭縣,三星鄉,宜蘭縣266三星鄉柑仔坑路,ChIJR3vIOzbgZzQRdVzw4t1jeVI,安農溪自行車道,4.5,346,"['tourist_attraction', 'point_of_interest', 'establishment']",台灣宜蘭縣三星鄉,121.650136,24.659692,OPERATIONAL
C1_376420000A_000343,安農溪自行車道,宜蘭縣,三星鄉,宜蘭縣266三星鄉柑仔坑路,ChIJs5NLPFjlZzQRn1X7B6pgCtg,安農溪自行車道,4.9,13,"['tourist_attraction', 'point_of_interest', 'establishment']",266台灣宜蘭縣三星鄉上將路一段2號,121.7513831,24.7028735,OPERATIONAL
C1_376420000A_000343,安農溪自行車道,宜蘭縣,三星鄉,宜蘭縣266三星鄉柑仔坑路,ChIJe4vcuE7hZzQRY65JQNkpNV0,安農溪自行車步道,4.6,239,"['park', 'point_of_interest', 'establishment']","號, No. 6-6光復路三星鄉宜蘭縣台灣 266",121.7125642,24.6796075,OPERATIONAL
C1_376420000A_000344,蘭陽溪自行車道,宜蘭縣,壯圍鄉,宜蘭縣268五結鄉溪濱路一段,ChIJ_dFDW2zlZzQRIr9K4Hyr_Dc,溪北環線自行車道,4.5,24,"['tourist_attraction', 'point_of_interest', 'establishment']","260台灣宜蘭縣宜蘭市260, Unnamed Road",121.7540708,24.7647595,OPERATIONAL
C1_376420000A_000344,蘭陽溪自行車道,宜蘭縣,壯圍鄉,宜蘭縣268五結鄉溪濱路一段,ChIJz89XeZnvZzQR0MLQbTbPLaU,壯圍濱海自行車道,3.9,27,"['point_of_interest', 'establishment']",263台灣宜蘭縣壯圍鄉,121.828184,24.717409,OPERATIONAL
C1_376420000A_000344,蘭陽溪自行車道,宜蘭縣,壯圍鄉,宜蘭縣268五結鄉溪濱路一段,ChIJ_fdkj8XlZzQR3RnCr-D8AJs,雙園自行車道,4.5,15,"['tourist_attraction', 'point_of_interest', 'establishment']",260台灣宜蘭縣宜蘭市中山路一段600號,121.7613452,24.7392567,OPERATIONAL
C1_376420000A_000344,蘭陽溪自行車道,宜蘭縣,壯圍鄉,宜蘭縣268五結鄉溪濱路一段,ChIJ_____6_6ZzQRw2WYmf7iED4,宜蘭北濱濱海自行車道,4.4,44,"['point_of_interest', 'establishment']",263台灣宜蘭縣壯圍鄉永 鎮 海邊,121.8167328,24.7787419,OPERATIONAL
C1_376420000A_000344,蘭陽溪自行車道,宜蘭縣,壯圍鄉,宜蘭縣268五結鄉溪濱路一段,ChIJs5NLPFjlZzQRn1X7B6pgCtg,安農溪自行車道,4.9,13,"['tourist_attraction', 'point_of_interest', 'establishment']",266台灣宜蘭縣三星鄉上將路一段2號,121.7513831,24.7028735,OPERATIONAL
C1_376420000A_000344,蘭陽溪自行車道,宜蘭縣,壯圍鄉,宜蘭縣268五結鄉溪濱路一段,ChIJR3vIOzbgZzQRdVzw4t1jeVI,安農溪自行車道,4.5,346,"['tourist_attraction', 'point_of_interest', 'establishment']",台灣宜蘭縣三星鄉,121.650136,24.659692,OPERATIONAL
C1_376420000A_000344,蘭陽溪自行車道,宜蘭縣,壯圍鄉,宜蘭縣268五結鄉溪濱路一段,ChIJszdwsILkZzQR91URlClDF_I,宜蘭河自行車道,4.3,12,"['point_of_interest', 'establishment']",台灣宜蘭縣員山鄉,121.7192779,24.745095,OPERATIONAL
C1_376420000A_000344,蘭陽溪自行車道,宜蘭縣,壯圍鄉,宜蘭縣268五結鄉溪濱路一段,ChIJe4vcuE7hZzQRY65JQNkpNV0,安農溪自行車步道,4.6,239,"['park', 'point_of_interest', 'establishment']","號, No. 6-6光復路三星鄉宜蘭縣台灣 266",121.7125642,24.6796075,OPERATIONAL
C1_376420000A_000344,蘭陽溪自行車道,宜蘭縣,壯圍鄉,宜蘭縣268五結鄉溪濱路一段,ChIJQXhNZJnvZzQR3TfC3IrRYEY,蘭陽溪口賞鳥地,4.3,89,"['park', 'point_of_interest', 'establishment']",263台灣宜蘭縣壯圍鄉,121.828319,24.716835,OPERATIONAL
C1_376420000A_000344,蘭陽溪自行車道,宜蘭縣,壯圍鄉,宜蘭縣268五結鄉溪濱路一段,ChIJ1TxnmarpZzQRhaV_Ot52n-E,新城溪南岸自行車道,4.7,3,"['point_of_interest', 'establishment']",270台灣宜蘭縣蘇澳鎮新城溪堤防,121.8169715,24.6185932,OPERATIONAL
C1_376420000A_000344,蘭陽溪自行車道,宜蘭縣,壯圍鄉,宜蘭縣268五結鄉溪濱路一段,ChIJ6UAMlpPvZzQRwEqI8ZVLq-0,自行車步道－廍後社區,4.1,36,"['point_of_interest', 'establishment']",263台灣宜蘭縣壯圍鄉廍後路57-16號號,121.8264417,24.7277751,OPERATIONAL
C1_376420000A_000344,蘭陽溪自行車道,宜蘭縣,壯圍鄉,宜蘭縣268五結鄉溪濱路一段,ChIJncz_HQDvZzQR8m35RBZbHCI,五結排水北岸自行車道,5.0,1,"['park', 'point_of_interest', 'establishment']",268台灣宜蘭縣五結鄉溪濱路一段125號,121.8294383,24.7040473,OPERATIONAL
C1_376420000A_000344,蘭陽溪自行車道,宜蘭縣,壯圍鄉,宜蘭縣268五結鄉溪濱路一段,ChIJOY6soHzoZzQR74HUTODRHAA,新城溪南岸腳踏車步道,4.6,20,"['point_of_interest', 'establishment']",270台灣宜蘭縣蘇澳鎮新城溪堤防,121.8210659,24.621465,OPERATIONAL
C1_376420000A_000344,蘭陽溪自行車道,宜蘭縣,壯圍鄉,宜蘭縣268五結鄉溪濱路一段,ChIJDdtF2XTvZzQR8d3QSXmy0zk,蘭陽溪口溼地,4.6,22,"['park', 'tourist_attraction', 'point_of_interest', 'establishment']",台灣宜蘭縣蘭 陽 溪,121.832471,24.7058623,OPERATIONAL
C1_376420000A_000345,冬山河自行車道,宜蘭縣,冬山鄉,宜蘭縣269冬山鄉冬山河兩旁,ChIJO4gx-wHmZzQRtQGX44Cp3mI,冬山河自行車道,4.6,218,"['park', 'point_of_interest', 'establishment']",269台灣宜蘭縣冬山鄉,121.8098247,24.6670688,OPERATIONAL
C1_376420000A_000345,冬山河自行車道,宜蘭縣,冬山鄉,宜蘭縣269冬山鄉冬山河兩旁,ChIJvdZ9VjbmZzQR5g1GA-WpSJY,冬山河環線 自行車道,4.5,63,"['park', 'tourist_attraction', 'point_of_interest', 'establishment']",269台灣宜蘭縣冬山鄉Unnamed Road,121.7906041,24.6414636,OPERATIONAL
C1_376420000A_000348,龜山島,宜蘭縣,頭城鎮,宜蘭縣261頭城鎮海岸以東約10公里處,ChIJY3b_nfn0ZzQRvJ7loapYCpU,龜山島,4.6,1109,"['natural_feature', 'establishment']",261台灣宜蘭縣頭城鎮龜山島,121.9501551,24.8423735,
C1_376420000A_000358,雙連埤野生動物保護區,宜蘭縣,員山鄉,宜蘭縣264員山鄉湖西村,ChIJe__1mX3iZzQRMymhcPfuwv8,荒野保護協會 雙連埤環境教育暨棲地守護基地,4.8,32,"['point_of_interest', 'establishment']",26445台灣宜蘭縣員山鄉隘界路556號,121.6680456,24.7502759,OPERATIONAL
C1_376420000A_000358,雙連埤野生動物保護區,宜蘭縣,員山鄉,宜蘭縣264員山鄉湖西村,ChIJsXemNmPiZzQRV7qhlwQBL7E,雙連埤,4.1,99,"['natural_feature', 'establishment']",264台灣宜蘭縣員山鄉雙連埤,121.6403645,24.7502224,
C1_376420000A_000359,蜊埤湖,宜蘭縣,員山鄉,宜蘭縣264員山鄉蜊埤路11號,ChIJHTubuhTjZzQRPxPjCG-lBbE,蜊埤湖,4.1,3459,"['tourist_attraction', 'point_of_interest', 'establishment']",264台灣宜蘭縣員山鄉蜊埤路,121.6971855,24.7553143,OPERATIONAL
C1_376420000A_000367,太平山國家森林遊樂區,宜蘭縣,大同鄉,宜蘭縣267大同鄉太平村太平巷58-1號,ChIJ_TaOy7JwaDQRFf4T-zm2dqo,太平山國家森林遊樂區,4.6,8444,"['tourist_attraction', 'park', 'point_of_interest', 'establishment']",267台灣宜蘭縣大同鄉太平巷58之1號,121.5350318,24.497724,OPERATIONAL
C1_376420000A_000368,明池森林遊樂區,宜蘭縣,大同鄉,宜蘭縣267大同鄉英士村明池山莊1號,ChIJrxw1vMZyaDQRnXGYIWeeDdE,明池森林遊樂區票口,4.4,1050,"['park', 'tourist_attraction', 'point_of_interest', 'establishment']",267台灣宜蘭縣大同鄉明池山莊1號,121.4731776,24.6505426,OPERATIONAL
C1_376420000A_000368,明池森林遊樂區,宜蘭縣,大同鄉,宜蘭縣267大同鄉英士村明池山莊1號,ChIJrxw1vMZyaDQRBGTaqK65qwg,明池國家森林遊樂區,4.4,9137,"['tourist_attraction', 'point_of_interest', 'establishment']",267台灣宜蘭縣大同鄉1力麗馬告生態園區明池山莊,121.4731516,24.6505607,OPERATIONAL
C1_376420000A_000368,明池森林遊樂區,宜蘭縣,大同鄉,宜蘭縣267大同鄉英士村明池山莊1號,ChIJ62vro8dyaDQRSzqjpwNV6jE,宜蘭大同明池山莊,4.4,12,"['point_of_interest', 'establishment']",中國台湾宜兰市英士村明池山庄1号,121.470184,24.65337,OPERATIONAL
C1_376420000A_000368,明池森林遊樂區,宜蘭縣,大同鄉,宜蘭縣267大同鄉英士村明池山莊1號,ChIJlReAw8ZyaDQRKDP-2y6r-Xo,明池,4.5,630,"['natural_feature', 'establishment']",267台灣宜蘭縣大同鄉明池,121.4715114,24.6509119,
C1_376420000A_000368,明池森林遊樂區,宜蘭縣,大同鄉,宜蘭縣267大同鄉英士村明池山莊1號,ChIJWaNquMZyaDQR3kyqXkkSa-4,明池,4.5,735,"['tourist_attraction', 'point_of_interest', 'establishment']",267台灣宜蘭縣大同鄉北橫公路,121.4715093,24.6509125,OPERATIONAL
C1_376420000A_000369,棲蘭森林遊樂區,宜蘭縣,大同鄉,宜蘭縣267大同鄉泰雅路四段6號,ChIJhcupgdNzaDQRmoC-slX64xU,棲蘭森林遊樂區遊客中心,4.0,617,"['travel_agency', 'point_of_interest', 'establishment']",267台灣宜蘭縣大同鄉泰雅路四段6號,121.4921297,24.5802739,OPERATIONAL
C1_376420000A_000369,棲蘭森林遊樂區,宜蘭縣,大同鄉,宜蘭縣267大同鄉泰雅路四段6號,ChIJzTFFVCtyaDQR0dVe1pNg7vc,棲蘭森林遊樂區忘憂亭,4.1,201,"['park', 'tourist_attraction', 'point_of_interest', 'establishment']",台灣宜蘭縣大同鄉,121.491093,24.581506,OPERATIONAL
C1_376420000A_000369,棲蘭森林遊樂區,宜蘭縣,大同鄉,宜蘭縣267大同鄉泰雅路四段6號,ChIJ5wxOf9NzaDQRTc-o90ZcbY4,棲蘭森林遊樂區售票處,2.8,16,"['point_of_interest', 'establishment']",267台灣宜蘭縣大同鄉泰雅路四段6號,121.494124,24.581328,OPERATIONAL
C1_376420000A_000369,棲蘭森林遊樂區,宜蘭縣,大同鄉,宜蘭縣267大同鄉泰雅路四段6號,ChIJhcupgdNzaDQRY29tSMtJhJY,棲蘭神木園區—亞洲最大紅檜神木群,4.6,2188,"['park', 'tourist_attraction', 'point_of_interest', 'establishment']",267台灣宜蘭縣大同鄉英士村林森巷51-1號,121.4342036,24.588094,OPERATIONAL
C1_376420000A_000369,棲蘭森林遊樂區,宜蘭縣,大同鄉,宜蘭縣267大同鄉泰雅路四段6號,ChIJU8FDuNRzaDQRmlgObFUoYng,棲蘭國家森林遊樂區油桐小舖,4.0,1,"['store', 'point_of_interest', 'establishment']",267台灣宜蘭縣大同鄉泰雅路四段6號,121.4921555,24.5802359,OPERATIONAL
C1_376420000A_000369,棲蘭森林遊樂區,宜蘭縣,大同鄉,宜蘭縣267大同鄉泰雅路四段6號,ChIJEa0YeNRzaDQR8Yr5kbWdbUg,棲蘭遊樂區,2.5,2,"['transit_station', 'point_of_interest', 'establishment']",267台灣宜蘭縣大同鄉,121.494865,24.580766,OPERATIONAL
C1_376420000A_000369,棲蘭森林遊樂區,宜蘭縣,大同鄉,宜蘭縣267大同鄉泰雅路四段6號,ChIJ7dNloP1taDQRI1uW5oDxT_w,棲蘭神木服務站,4.3,663,"['park', 'point_of_interest', 'establishment']",267台灣宜蘭縣大同鄉100線林道,121.4374547,24.5906394,OPERATIONAL
C1_376420000A_000369,棲蘭森林遊樂區,宜蘭縣,大同鄉,宜蘭縣267大同鄉泰雅路四段6號,ChIJJQzpd9RzaDQRZcaUS66FZCg,棲蘭遊樂區,4.3,4,"['transit_station', 'point_of_interest', 'establishment']",267台灣宜蘭縣大同鄉,121.495,24.58078,OPERATIONAL
C1_376420000A_000369,棲蘭森林遊樂區,宜蘭縣,大同鄉,宜蘭縣267大同鄉泰雅路四段6號,ChIJFax7BwBzaDQRxQsQBkY2NhI,棲蘭國家森林遊樂區棲蘭小舖,5.0,1,"['store', 'point_of_interest', 'establishment']",267台灣宜蘭縣大同鄉泰雅路四段6號,121.4922048,24.5803038,OPERATIONAL
C1_376420000A_000369,棲蘭森林遊樂區,宜蘭縣,大同鄉,宜蘭縣267大同鄉泰雅路四段6號,ChIJDaFSx9RzaDQR-xAsg5lw52s,力麗馬告生態園區棲蘭山莊,3.9,2180,"['park', 'lodging', 'tourist_attraction', 'restaurant', 'point_of_interest', 'food', 'establishment']",267台灣宜蘭縣大同鄉泰雅路四段6號,121.4922397,24.580152,OPERATIONAL
C1_376420000A_000369,棲蘭森林遊樂區,宜蘭縣,大同鄉,宜蘭縣267大同鄉泰雅路四段6號,ChIJU1rkotRzaDQRuURXxtwcwcA,小泰山森林浴步道,4.2,73,"['tourist_attraction', 'point_of_interest', 'establishment']",267台灣宜蘭縣大同鄉,121.4925674,24.580928,OPERATIONAL
C1_376420000A_000386,清水大閘門,宜蘭縣,五結鄉,宜蘭縣268五結鄉清水橋旁,ChIJ0f_fWGvvZzQRAO2DF1TIniQ,五結防潮閘門,4.3,92,"['point_of_interest', 'establishment']",台灣宜蘭縣五結鄉,121.832508,24.692718,OPERATIONAL
C1_376420000A_000388,外澳海灘,宜蘭縣,頭城鎮,宜蘭縣261頭城鎮外澳里濱海路2段6號,ChIJw4PJsKf3ZzQRAjRUNGhq4nY,外澳沙灘,4.4,8216,"['natural_feature', 'establishment']",261台灣宜蘭縣頭城鎮濱海路二段6號外澳沙灘,121.8430714,24.8778107,OPERATIONAL
C1_376420000A_000390,仁山植物園,宜蘭縣,冬山鄉,宜蘭縣269冬山鄉新寮路500號,ChIJI5W_Vw3nZzQRrzAvR-_n9i0,仁山植物園,4.3,3944,"['park', 'tourist_attraction', 'point_of_interest', 'establishment']",269台灣宜蘭縣冬山鄉新寮路500號,121.7594213,24.6245913,OPERATIONAL
C1_376420000A_000392,梅花湖,宜蘭縣,冬山鄉,宜蘭縣269冬山鄉得安村大埤路1號,ChIJ7RubbibnZzQRA8A3eSqKblM,梅花湖,4.4,3034,"['natural_feature', 'establishment']",269台灣宜蘭縣冬山鄉梅花湖,121.7330825,24.6427251,
C1_376420000A_000393,新寮瀑布,宜蘭縣,南澳鄉,宜蘭縣269冬山鄉中山村新寮二路盡頭,ChIJ3RhtF2DnZzQRRheu25qsk_M,新寮瀑布,4.5,2960,"['tourist_attraction', 'point_of_interest', 'establishment']",269台灣宜蘭縣冬山鄉新寮二路,121.744857,24.6011819,OPERATIONAL
C1_376420000A_000395,東岳湧泉,宜蘭縣,南澳鄉,宜蘭縣272南澳鄉東岳村蘇花路3段 (東澳國小後面),ChIJmV4fbkXDZzQRnzpRESRVlMM,東岳湧泉,4.4,381,"['tourist_attraction', 'point_of_interest', 'establishment']",272台灣宜蘭縣南澳鄉272,121.8310008,24.5243055,CLOSED_TEMPORARILY
C1_376420000A_000410,望龍埤,宜蘭縣,員山鄉,宜蘭縣264員山鄉枕山村坡城路,ChIJX3qwoUvjZzQRD_TNlJmeDzQ,望龍埤,4.3,13948,"['tourist_attraction', 'point_of_interest', 'establishment']",264台灣宜蘭縣員山鄉,121.6990972,24.7766,OPERATIONAL
C1_376420000A_000413,長埤湖風景區,宜蘭縣,三星鄉,宜蘭縣266三星鄉省道臺7丙線上,ChIJ2WyDKrcKaDQRrbGZayWe9bg,長埤湖風景區,4.0,2267,"['tourist_attraction', 'point_of_interest', 'establishment']",266台灣宜蘭縣三星鄉,121.6109619,24.6440544,OPERATIONAL
C1_376420000A_000417,宜蘭磚窯,宜蘭縣,宜蘭市,宜蘭縣260宜蘭市津梅路75巷,ChIJJ-tKos3kZzQRGItLlzP9yY4,宜蘭津梅磚窯,3.8,1453,"['tourist_attraction', 'point_of_interest', 'establishment']",260台灣宜蘭縣宜蘭市津梅路75巷13號,121.7522166,24.7672915,OPERATIONAL
C1_376420000A_000426,羅東林業文化園區,宜蘭縣,羅東鎮,宜蘭縣265羅東鎮中正北路118號,ChIJMY-Oj9blZzQR-KxtOScEVwc,羅東林業文化園區,4.4,23425,"['tourist_attraction', 'park', 'point_of_interest', 'establishment']",265台灣宜蘭縣羅東鎮中正北路118號,121.7722507,24.6819306,OPERATIONAL
C1_376420000A_000435,莎貝莉娜Sabelina,宜蘭縣,宜蘭市,宜蘭縣260宜蘭市梅洲一路16-3號,ChIJF-hVjkv7ZzQRZkYk1SCjIkg,莎貝莉娜精靈印畫學院,4.6,4688,"['tourist_attraction', 'point_of_interest', 'establishment']",260台灣宜蘭縣宜蘭市梅洲一路16-3號,121.7371841,24.777106,OPERATIONAL
C1_376420000A_000436,菌寶貝博物館,宜蘭縣,宜蘭市,宜蘭縣260宜蘭市梅州一路22號,ChIJGdn6jEz7ZzQR-ly6VpiGDms,菌寶貝博物館,4.3,2811,"['tourist_attraction', 'museum', 'point_of_interest', 'establishment']",26053台灣宜蘭縣宜蘭市梅洲一路22號,121.735571,24.77634,OPERATIONAL
C1_376420000A_000442,金車噶瑪蘭蘭威士忌酒廠,宜蘭縣,員山鄉,宜蘭縣264員山鄉員山路二段326號,ChIJ64ctgcPjZzQRd01GP9yBVYg,金車噶瑪蘭 酒廠,4.4,4211,"['tourist_attraction', 'bar', 'point_of_interest', 'establishment']",264台灣宜蘭縣員山鄉員山路二段326號,121.6885279,24.7139177,OPERATIONAL
C1_376420000A_000443,養蜂人家蜂采館,宜蘭縣,員山鄉,宜蘭縣264員山鄉員山路二段403號,ChIJKS-1h9DjZzQRiGFkARBdq90,養蜂人家蜂采館,4.7,8544,"['point_of_interest', 'establishment']",264台灣宜蘭縣員山鄉員山路二段403號,121.6845925,24.7085683,OPERATIONAL
C1_376420000A_000444,香草菲菲芳香植物博物館,宜蘭縣,員山鄉,宜蘭縣264員山鄉內城村內城路650號,ChIJFaawTsbjZzQRbgkXUqc1m9U,香草菲菲 芳香植物博物館,3.9,2520,"['museum', 'park', 'tourist_attraction', 'health', 'restaurant', 'food', 'point_of_interest', 'store', 'establishment']",264台灣宜蘭縣員山鄉內城路650號,121.6829894,24.7142725,OPERATIONAL
C1_376420000A_000460,幸福轉運站,宜蘭縣,宜蘭市,宜蘭縣260宜蘭市宜蘭市宜興路一段117號,ChIJUfBo9NzkZzQR-3osTOSNNSQ,幸福轉運站(舊宜蘭站),4.5,18,"['bus_station', 'transit_station', 'point_of_interest', 'establishment']",260台灣宜蘭縣宜蘭市,121.75624,24.7516,OPERATIONAL
C1_376420000A_000460,幸福轉運站,宜蘭縣,宜蘭市,宜蘭縣260宜蘭市宜蘭市宜興路一段117號,ChIJJWigitzkZzQRrBEQuofqiZE,幸福轉運站(舊宜蘭站),3.3,6,"['bus_station', 'transit_station', 'point_of_interest', 'establishment']",260台灣宜蘭縣宜蘭市,121.756584,24.751897,OPERATIONAL
C1_376420000A_000461,九寮溪生態園區,宜蘭縣,大同鄉,宜蘭縣267大同鄉崙埤村林家巷,ChIJWRB2i6oLaDQRXioXUHhn_VE,九寮溪自然步道,4.5,625,"['tourist_attraction', 'point_of_interest', 'establishment']",267台灣宜蘭縣大同鄉溪生態園區,121.5995228,24.6737613,OPERATIONAL
C1_376420000A_000461,九寮溪生態園區,宜蘭縣,大同鄉,宜蘭縣267大同鄉崙埤村林家巷,ChIJ_9FoarELaDQRFOy5Nzm7Whg,九寮溪生態園區,4.2,1765,"['park', 'tourist_attraction', 'point_of_interest', 'establishment']",267台灣宜蘭縣大同鄉崙埤村林家巷,121.5983772,24.6738315,OPERATIONAL
C1_376420000A_000462,清溝夜市,宜蘭縣,冬山鄉,宜蘭縣269冬山鄉清溝路,ChIJD_EWDovmZzQRFlbEcXbdCSk,清溝夜市,4.4,5535,"['tourist_attraction', 'point_of_interest', 'establishment']",269台灣宜蘭縣冬山鄉清溝路153號,121.761295,24.66399,OPERATIONAL
C1_376420000A_000662,瘋狂夢想藝術園區,宜蘭縣,蘇澳鎮,宜蘭縣270蘇澳鎮新城一路30號,ChIJzwDAcGXoZzQRxaaTayGbIno,RobertY廢墟暴龍館-真暴龍化石 實境VR DIY體驗 尋寶遊戲 實境解謎 密室逃脫 (歡迎攜帶寵物不落地即可),4.8,8186,"['tourist_attraction', 'museum', 'point_of_interest', 'establishment']",270台灣宜蘭縣蘇澳鎮新城一路30號,121.8243787,24.6157581,OPERATIONAL
C1_376420000A_000663,張美阿嬤農場,宜蘭縣,三星鄉,宜蘭縣266三星鄉行健溪一路二段161號,ChIJhfheDgnhZzQRzHYRfqcbt3E,張美阿嬤農場,4.9,93294,"['point_of_interest', 'establishment']",266台灣宜蘭縣三星鄉行健溪一路二段161號,121.675608,24.6748671,OPERATIONAL
C1_376420000A_000665,綺麗觀光園區,宜蘭縣,蘇澳鎮,宜蘭縣270蘇澳鎮利工一路1段6號,ChIJG1_rDLboZzQRWsMwGKfVdm4,綺麗珊瑚寶石觀光工廠,4.1,758,"['tourist_attraction', 'lodging', 'point_of_interest', 'store', 'establishment']",270台灣宜蘭縣蘇澳鎮利工一路一段6號,121.8429001,24.6353625,OPERATIONAL
C1_376420000A_000665,綺麗觀光園區,宜蘭縣,蘇澳鎮,宜蘭縣270蘇澳鎮利工一路1段6號,ChIJ_2bnycrpZzQRGnZppe7otnE,綺麗珊瑚博物館,4.0,1276,"['tourist_attraction', 'museum', 'point_of_interest', 'establishment']",270台灣宜蘭縣蘇澳鎮利工一路一段6號,121.8438076,24.6354419,OPERATIONAL
C1_376430000A_000011,桃園火車站前商圈,桃園市,桃園區,桃園市330桃園區桃園火車站前中正路延伸至中山路景福宮段的熱鬧商圈,ChIJIfEnUuMeaDQRPG5Duu5SY2k,龍情花生 桃園中正店,4.9,1002,"['store', 'point_of_interest', 'food', 'establishment']",330台灣桃園市桃園區中正路364號,121.3086656,24.9986346,OPERATIONAL
C1_376430000A_000011,桃園火車站前商圈,桃園市,桃園區,桃園市330桃園區桃園火車站前中正路延伸至中山路景福宮段的熱鬧商圈,ChIJP6yUReMeaDQRe0qiarE5rIw,桃園,3.9,2546,"['train_station', 'transit_station', 'point_of_interest', 'establishment']",330台灣桃園市桃園區中正路1號,121.31444,24.98892,OPERATIONAL
C1_376430000A_000012,桃園忠烈祠暨神社文化園區,桃園市,桃園區,桃園市330桃園區成功路三段200號,ChIJayvybg8faDQRIzSItTKNBRY,桃園忠烈祠暨神社文化園區,4.5,8025,"['tourist_attraction', 'point_of_interest', 'establishment']",330台灣桃園市桃園區成功路三段200號,121.3252836,25.0062905,OPERATIONAL
C1_376430000A_000014,奧爾森林學堂,桃園市,桃園區,桃園市330桃園區公園路42號,ChIJCRxzm14eaDQR3PZZ34VhFKU,奧爾森林學堂,4.4,7645,"['park', 'tourist_attraction', 'point_of_interest', 'establishment']",330台灣桃園市桃園區公園路42號,121.327567,25.0018144,OPERATIONAL
C1_376430000A_000050,角板山行館,桃園市,復興區,桃園市336復興區澤仁里中正路133-1號,ChIJO5UTJ7gWaDQRsGP5_Bk6x7Y,角板山行館,4.2,7917,"['tourist_attraction', 'park', 'point_of_interest', 'establishment']",336台灣桃園市復興區中正路133-1號,121.3488891,24.8162611,OPERATIONAL
C1_376430000A_000054,三民蝙蝠洞,桃園市,復興區,桃園市336復興區三民里東側五寮溪溪谷內,ChIJI4DErMwQaDQRARdfhbEvTPo,三民蝙蝠洞,4.2,4292,"['tourist_attraction', 'park', 'point_of_interest', 'establishment']",336台灣桃園市復興區東側五寮溪溪谷內,121.3502742,24.838144,OPERATIONAL
C1_376430000A_000057,東眼山國家森林遊樂區,桃園市,復興區,桃園市336復興區成福路600號,ChIJQXkJkKg9aDQRroQxl2JMErY,東眼山國家森林遊樂區,4.4,12294,"['park', 'tourist_attraction', 'point_of_interest', 'establishment']",336台灣桃園市復興區成福路600號,121.407938,24.8312598,OPERATIONAL
C1_376430000A_000061,北橫三橋（羅浮橋、復興橋、巴陵橋）,桃園市,復興區,桃園市336復興區七號省道21公里處,ChIJ-Xb7d0ltaDQRz4MJJQxwVvQ,老巴陵橋,4.4,25,"['tourist_attraction', 'point_of_interest', 'establishment']",336台灣桃園市復興區橫貫公路北部支線,121.378371,24.680341,OPERATIONAL
C1_376430000A_000061,北橫三橋（羅浮橋、復興橋、巴陵橋）,桃園市,復興區,桃園市336復興區七號省道21公里處,ChIJG7AecoNtaDQRYxA6qGmyUlI,巴陵雙橋休憩區,4.5,109,"['tourist_attraction', 'point_of_interest', 'establishment']",336台灣桃園市復興區336,121.3783414,24.6818663,OPERATIONAL
C1_376430000A_000061,北橫三橋（羅浮橋、復興橋、巴陵橋）,桃園市,復興區,桃園市336復興區七號省道21公里處,ChIJK75w3TVtaDQRTeH8w8TuAnc,巴陵大橋,4.7,55,"['tourist_attraction', 'point_of_interest', 'establishment']",336台灣桃園市復興區巴陵大橋,121.3794017,24.6815295,OPERATIONAL
C1_376430000A_000063,拉拉山巨木區(森林遊樂區),桃園市,復興區,桃園市336復興區華陵里11鄰205號,ChIJDZUg8NITaDQR7O8DS7SbXn4,拉拉山神木群步道,4.7,3148,"['tourist_attraction', 'park', 'point_of_interest', 'establishment']",336台灣桃園市復興區11鄰205號,121.4377528,24.710668,OPERATIONAL
C1_376430000A_000086,綠光森林,桃園市,復興區,桃園市336復興區霞雲里3鄰志繼19號之2,ChIJT8qd7fsQaDQRlSftnBuRUXo,綠光森林-平日預約入園,4.3,2789,"['lodging', 'point_of_interest', 'establishment']",336台灣桃園市復興區成福路328號休園日請見官網,121.3751406,24.816977,OPERATIONAL
C1_376430000A_000104,國立中央大學,桃園市,中壢區,桃園市320中壢區中大路300號,ChIJy02Q7MEjaDQRVuRcRdQpwc0,國立中央大學,4.5,2822,"['university', 'point_of_interest', 'establishment']",320台灣桃園市中壢區中大路300號,121.1952988,24.9681558,OPERATIONAL
C1_376430000A_000106,大江國際購物中心,桃園市,中壢區,桃園市320中壢區中園路二段501號,ChIJOXR22rwhaDQRKg6BtwjRbh0,大江國際購物中心,4.4,37351,"['shopping_mall', 'point_of_interest', 'establishment']",320台灣桃園市中壢區中園路二段501號,121.228654,25.000988,OPERATIONAL
C1_376430000A_000108,黑松飲料博物館,桃園市,中壢區,桃園市320中壢區中園路178號,ChIJ70aYroshaDQR_PHWROJqCeU,黑松飲料博物館,4.1,409,"['museum', 'tourist_attraction', 'point_of_interest', 'establishment']",320台灣桃園市中壢區中園路178號,121.2370586,24.9771495,OPERATIONAL
C1_376430000A_000118,郭元益糕餅博物館,桃園市,楊梅區,桃園市326楊梅區幼獅工業區青年路9巷3號,ChIJ8_Zce58kaDQROYgVWjAIOPQ,郭元益糕餅博物館 桃園楊梅館,4.4,5808,"['museum', 'cafe', 'tourist_attraction', 'bakery', 'food', 'point_of_interest', 'store', 'establishment']",326台灣桃園市楊梅區青年路9巷3號,121.166915,24.9282193,OPERATIONAL
C1_376430000A_000119,雅聞魅力博覽館,桃園市,楊梅區,桃園市326楊梅區中山北路一段21巷1號,ChIJV0Tn9TE7aDQR1TpiyEArG2o,桃園楊梅雅聞魅力博覽館,4.1,963,"['tourist_attraction', 'point_of_interest', 'establishment']",326台灣桃園市楊梅區中山北路一段21巷1號,121.1507755,24.9067608,OPERATIONAL
C1_376430000A_000134,台塑企業文物館,桃園市,龜山區,桃園市333龜山區文化一路259號,ChIJf_xkJ2WnQjQR-yRsWPgEKbk,台塑企業文物館,4.6,2919,"['museum', 'tourist_attraction', 'point_of_interest', 'establishment']",333台灣桃園市龜山區文化一路259號長庚大學內,121.3881037,25.0346706,OPERATIONAL
C1_376430000A_000135,桃園酒廠,桃園市,龜山區,桃園市333龜山區文化一路55號,ChIJi7XZuD2nQjQRipQbQOBqbJc,臺灣菸酒股份有限公司 桃園酒廠,4.1,1374,"['tourist_attraction', 'food', 'point_of_interest', 'establishment']",333台灣桃園市龜山區文化一路55號,121.3751967,25.0563265,OPERATIONAL
C1_376430000A_000137,南僑桃園生活體驗園區,桃園市,龜山區,桃園市333龜山區龜山工業區興邦路35號,ChIJeWuEEswfaDQRTT2a-2t9El0,南僑桃園生活體驗園區,,0,"['point_of_interest', 'establishment']",33370台灣桃園市龜山區興邦路35號,121.324784,24.982376,OPERATIONAL
C1_376430000A_000137,南僑桃園生活體驗園區,桃園市,龜山區,桃園市333龜山區龜山工業區興邦路35號,ChIJX-zx8u4eaDQRtzzsWq4grw4,南僑桃園觀光體驗工廠,3.8,2582,"['tourist_attraction', 'restaurant', 'point_of_interest', 'food', 'establishment']",33370台灣桃園市龜山區興邦路35號,121.324784,24.982376,OPERATIONAL
C1_376430000A_000186,台茂購物中心,桃園市,蘆竹區,桃園市338蘆竹區南崁路一段112號,ChIJReiujXSgQjQRUEIzbN1DkSI,台茂購物中心,4.3,29486,"['department_store', 'shopping_mall', 'point_of_interest', 'store', 'establishment']",338台灣桃園市蘆竹區南崁路一段112號,121.288392,25.053471,OPERATIONAL
C1_376430000A_000186,台茂購物中心,桃園市,蘆竹區,桃園市338蘆竹區南崁路一段112號,ChIJxYoWBwChQjQR0eIVbozj29s,台茂,4.5,2,"['shopping_mall', 'point_of_interest', 'establishment']",338台灣桃園市蘆竹區,121.2875529,25.0540794,OPERATIONAL
C1_376430000A_000186,台茂購物中心,桃園市,蘆竹區,桃園市338蘆竹區南崁路一段112號,ChIJj3OAVnSgQjQRdbCnnsLYRIY,台茂購物中心,4.3,61,"['transit_station', 'point_of_interest', 'establishment']",338台灣桃園市蘆竹區,121.2887722,25.0514727,OPERATIONAL
C1_376430000A_000186,台茂購物中心,桃園市,蘆竹區,桃園市338蘆竹區南崁路一段112號,ChIJZfKi-nSgQjQRdS3lqiwuXRw,台茂購物中心,4.5,2,"['transit_station', 'point_of_interest', 'establishment']",338台灣桃園市蘆竹區,121.2877535,25.051989,OPERATIONAL
C1_376430000A_000186,台茂購物中心,桃園市,蘆竹區,桃園市338蘆竹區南崁路一段112號,ChIJPZwG5XSgQjQRY3kyI7XgT3A,台茂,4.0,107,"['transit_station', 'point_of_interest', 'establishment']",338台灣桃園市蘆竹區南崁路一段112號,121.2875859,25.0518383,OPERATIONAL
C1_376430000A_000188,竹圍漁港,桃園市,大園區,桃園市337大園區沙崙里1鄰漁港路451巷25號,ChIJAQAAAKyfQjQR7fhsd-lMPDU,竹圍漁港,4.2,38629,"['tourist_attraction', 'point_of_interest', 'establishment']",337台灣桃園市大園區漁港路451巷25號,121.2444776,25.117158,OPERATIONAL
C1_376430000A_000248,溪海休閒農業園區,桃園市,大園區,桃園市337大園區溪海里16鄰聖德北路828號,ChIJ68trFXwhaDQR2CRu_MmLn0Q,溪海休閒農業區遊客中心,4.2,241,"['point_of_interest', 'establishment']",337台灣桃園市大園區聖德北路828號,121.1955214,25.0329502,OPERATIONAL
C1_376430000A_000248,溪海休閒農業園區,桃園市,大園區,桃園市337大園區溪海里16鄰聖德北路828號,ChIJU0YTz-AgaDQRaaI7uq8Wq3s,溪海花卉園區,3.8,4188,"['tourist_attraction', 'point_of_interest', 'establishment']",337台灣桃園市大園區聖德北路868號,121.1953089,25.0317351,OPERATIONAL
C1_376430000A_000248,溪海休閒農業園區,桃園市,大園區,桃園市337大園區溪海里16鄰聖德北路828號,ChIJu6ePnOcgaDQR5JY5ZbHDKEs,桃園市彩色海芋季,3.8,3301,"['point_of_interest', 'establishment']",337台灣桃園市大園區聖德北路828號,121.1955193,25.0329611,OPERATIONAL
C1_376430000A_000248,溪海休閒農業園區,桃園市,大園區,桃園市337大園區溪海里16鄰聖德北路828號,ChIJh2NVuAohaDQR0F9-ghZt-34,溪海花卉農遊趣春季展區,4.1,8,"['general_contractor', 'point_of_interest', 'establishment']",337台灣桃園市大園區聖德北路868號,121.1956284,25.0323992,OPERATIONAL
C1_376430000A_000248,溪海休閒農業園區,桃園市,大園區,桃園市337大園區溪海里16鄰聖德北路828號,ChIJo6I8jOcgaDQRoaSFLmWRlWw,溪海村公路花園,4.0,13,"['tourist_attraction', 'point_of_interest', 'establishment']",337台灣桃園市大園區聖德北路97號,121.1944884,25.0369339,OPERATIONAL
C1_376430000A_000276,白沙岬燈塔,桃園市,觀音區,桃園市328觀音區光明路216號,ChIJ27tMK5woaDQRzSORHeb5gzA,白沙岬燈塔,4.2,5865,"['tourist_attraction', 'point_of_interest', 'establishment']",328台灣桃園市觀音區光明路216號,121.076243,25.041313,OPERATIONAL
C1_376430000A_000283,觀音自行車道,桃園市,觀音區,桃園市328觀音區新路122巷3號,ChIJBYlBtX8naDQRfTJGQD4k_0Q,白千層林道,4.3,264,"['park', 'point_of_interest', 'establishment']",328台灣桃園市觀音區福新路122巷3號Unnamed Road,121.16007,25.0228263,OPERATIONAL
C1_376430000A_000308,范姜老屋群,桃園市,新屋區,桃園市327新屋區中正路110巷8號,ChIJEw6UN6MlaDQRq4xLquXv-Qk,新屋范姜祖堂,4.3,931,"['tourist_attraction', 'point_of_interest', 'establishment']",327台灣桃園市新屋區中正路110巷8號,121.1044425,24.9761942,OPERATIONAL
C1_376430000A_000309,老K舒眠文化館,桃園市,新屋區,桃園市327新屋區梅高路三段97號,ChIJC1DgX_UkaDQRFK8xZMgiwZI,老K舒眠文化館,4.1,828,"['tourist_attraction', 'point_of_interest', 'establishment']",327台灣桃園市新屋區梅高路三段97號,121.1466277,24.9537156,OPERATIONAL
C1_376430000A_000311,新屋綠色走廊,桃園市,新屋區,桃園市327新屋區觀海路一段,ChIJD7Q6XBEuaDQR-dGCGkg5hyU,新屋綠色走廊,4.3,6015,"['tourist_attraction', 'point_of_interest', 'establishment']",327台灣桃園市新屋區觀海路一段,121.0123765,24.9694082,OPERATIONAL
C1_376430000A_000311,新屋綠色走廊,桃園市,新屋區,桃園市327新屋區觀海路一段,ChIJxZe_DgIyaDQRKPQ6HNgtu0E,新屋綠色走廊 綠色隧道海景,4.6,143,"['tourist_attraction', 'point_of_interest', 'establishment']",台灣桃園市新屋區327,120.9871919,24.9417357,OPERATIONAL
C1_376430000A_000311,新屋綠色走廊,桃園市,新屋區,桃園市327新屋區觀海路一段,ChIJC0PGPe8uaDQRreGzOjsPTKQ,新屋綠色走廊 觀海亭,4.4,239,"['point_of_interest', 'establishment']",327台灣桃園市新屋區桃96鄉道,121.0035208,24.9598338,OPERATIONAL
C1_376430000A_000311,新屋綠色走廊,桃園市,新屋區,桃園市327新屋區觀海路一段,ChIJTypMOPYuaDQRKIREQAc8gKk,綠色走廊租車,3.7,285,"['point_of_interest', 'establishment']",327台灣桃園市新屋區觀海路二段838號,121.0183733,24.9842889,OPERATIONAL
C1_376430000A_000314,永安漁港,桃園市,新屋區,桃園市327新屋區永安里中山西路3段1165號,ChIJU9iHxPQuaDQR2v3_t-04zTU,永安漁港,4.1,36375,"['tourist_attraction', 'point_of_interest', 'establishment']",327台灣桃園市新屋區中山西路三段1165號,121.0157884,24.987719,OPERATIONAL
C1_376430000A_000330,龍潭三水里茶園,桃園市,龍潭區,桃園市325龍潭區三水里大北坑,ChIJ_zmLfmI7aDQR0_wO3zcObUE,三水茗園,4.6,27,"['food', 'point_of_interest', 'store', 'establishment']","No. 29, Ln. 1371, Dabeikeng St, 龍潭區桃園市台灣 325003",121.1621579,24.8668886,OPERATIONAL
C1_376430000A_000332,龍潭觀光大池,桃園市,龍潭區,桃園市325龍潭區上林里中豐路上林段115巷11號,ChIJGWs7Pvs8aDQR85-UeY7fPWE,龍潭大池,4.3,9742,"['tourist_attraction', 'point_of_interest', 'establishment']",325台灣桃園市龍潭區中豐路上林段115巷11號,121.2094495,24.8635524,OPERATIONAL
C1_376430000A_000332,龍潭觀光大池,桃園市,龍潭區,桃園市325龍潭區上林里中豐路上林段115巷11號,ChIJk4C6cvs8aDQRQxTv9z59Pgg,龍潭湖,4.5,62,"['natural_feature', 'establishment']",325台灣桃園市龍潭區龍潭湖,121.2100481,24.8617042,
C1_376430000A_000332,龍潭觀光大池,桃園市,龍潭區,桃園市325龍潭區上林里中豐路上林段115巷11號,ChIJj2o_iK45bYERbAQ57UoukyE,龍潭大池,4.4,2001,"['natural_feature', 'establishment']",325台灣桃園市龍潭區龍潭大池,121.2100481,24.8617042,
C1_376430000A_000333,桃園客家文化館,桃園市,龍潭區,桃園市325龍潭區中正路三林段500號,ChIJz_8Mi6c9aDQRib3rHM_LouI,桃園市客家文化館,4.0,1034,"['museum', 'local_government_office', 'point_of_interest', 'establishment']",325台灣桃園市龍潭區中正路三林段500號,121.234656,24.8450793,OPERATIONAL
C1_376430000A_000334,龍潭聖蹟亭,桃園市,龍潭區,桃園市325龍潭區段二十地號,ChIJPc8MIuU8aDQR6san_2SaDBs,龍潭聖蹟亭,4.1,547,"['tourist_attraction', 'point_of_interest', 'establishment']",325台灣桃園市龍潭區段二十地號,121.2077451,24.8664575,OPERATIONAL
C1_376430000A_000337,三坑老街,桃園市,龍潭區,桃園市325龍潭區三坑老街45號,ChIJQzWJoZ09aDQRZxaSPsG28Jk,三坑老街,3.8,10700,"['tourist_attraction', 'point_of_interest', 'establishment']",325台灣桃園市龍潭區三坑老街45號,121.248429,24.8443441,OPERATIONAL
C1_376430000A_000347,小人國,桃園市,龍潭區,桃園市325龍潭區高原里高原路891號,ChIJIVlPqhY8aDQRcSMa0PLZrkk,小人國主題樂園,4.5,28981,"['amusement_park', 'tourist_attraction', 'museum', 'travel_agency', 'restaurant', 'point_of_interest', 'food', 'establishment']",325台灣桃園市龍潭區高原路891號,121.1872475,24.8313646,OPERATIONAL
C1_376430000A_000347,小人國,桃園市,龍潭區,桃園市325龍潭區高原里高原路891號,ChIJeZwptQ08aDQRSmGpfWDPyTY,小人國水樂園,4.4,1363,"['point_of_interest', 'establishment']",325台灣桃園市龍潭區小人國園區道路,121.1796552,24.8359602,OPERATIONAL
C1_376430000A_000347,小人國,桃園市,龍潭區,桃園市325龍潭區高原里高原路891號,ChIJD755RhE8aDQROM6LIe3V70w,小人國,4.8,30,"['transit_station', 'point_of_interest', 'establishment']",325台灣桃園市龍潭區,121.18713,24.83128,OPERATIONAL
C1_376430000A_000347,小人國,桃園市,龍潭區,桃園市325龍潭區高原里高原路891號,ChIJrfj1RhE8aDQRanRFJkwVVSU,小人國,5.0,4,"['transit_station', 'point_of_interest', 'establishment']",325台灣桃園市龍潭區,121.187324,24.8316035,OPERATIONAL
C1_376430000A_000347,小人國,桃園市,龍潭區,桃園市325龍潭區高原里高原路891號,ChIJaZcERxE8aDQRnYS38921fgg,小人國,4.5,15,"['transit_station', 'point_of_interest', 'establishment']",325台灣桃園市龍潭區,121.1871,24.83122,OPERATIONAL
C1_376430000A_000347,小人國,桃園市,龍潭區,桃園市325龍潭區高原里高原路891號,ChIJQ1n1cRE8aDQRtbqMNv9_J_o,小人國微縮文化學校,4.5,27,"['point_of_interest', 'establishment']",325台灣桃園市龍潭區高原里7鄰高原路891號,121.1860342,24.8319672,OPERATIONAL
C1_376430000A_000347,小人國,桃園市,龍潭區,桃園市325龍潭區高原里高原路891號,ChIJfaECNBE8aDQRtfBVIoIcV6s,小人國鐵軌,4.3,26,"['point_of_interest', 'establishment']",325台灣桃園市龍潭區小人國園區道路,121.1830987,24.8334515,OPERATIONAL
C1_376430000A_000347,小人國,桃園市,龍潭區,桃園市325龍潭區高原里高原路891號,ChIJ3UHihjg9aDQRWmrRNfACm9w,小人國 氣墊樂園,5.0,3,"['point_of_interest', 'establishment']",325台灣桃園市龍潭區,121.1793102,24.8360144,OPERATIONAL
C1_376430000A_000351,石門水庫,桃園市,大溪區,桃園市335大溪區復興里環湖路一段68號,ChIJKYt-Jt49aDQRv3xRopPC9fo,石門水庫,4.3,1264,"['natural_feature', 'establishment']",台灣石門水庫,121.289816,24.8130059,
C1_376430000A_000356,小粗坑古道,桃園市,龍潭區,桃園市325龍潭區高平里粗坑2鄰,ChIJVVVVVTE8aDQRcmiVpDoAx5w,小粗坑古道,4.0,643,"['tourist_attraction', 'park', 'point_of_interest', 'establishment']",325台灣桃園市龍潭區,121.2215389,24.8121397,OPERATIONAL
C1_376430000A_000373,大溪陵寢,桃園市,大溪區,桃園市335大溪區復興路一段兩蔣文化園區,ChIJ0-_cDrgXaDQRvjLnANq6lkc,大溪陵寢,4.1,229,"['cemetery', 'tourist_attraction', 'point_of_interest', 'establishment']",335台灣桃園市大溪區復興路一段兩蔣文化園區,121.2860316,24.8484279,OPERATIONAL
C1_376430000A_000376,慈湖紀念雕塑公園,桃園市,大溪區,桃園市335大溪區復興路一段1097號,ChIJt_9vDLEXaDQR-qsmPW84KEM,慈湖紀念雕塑公園,4.1,1292,"['tourist_attraction', 'park', 'point_of_interest', 'establishment']",335台灣桃園市大溪區復興路一段1097號,121.2937042,24.841555,OPERATIONAL
C1_376430000A_000381,慈湖遊客中心,桃園市,大溪區,桃園市335大溪區復興路一段1097號,ChIJiahl_bMXaDQREwffA7ox-Wc,慈湖,4.2,3660,"['travel_agency', 'point_of_interest', 'establishment']",335台灣桃園市大溪區復興路一段1097號,121.29426,24.8403477,OPERATIONAL
C1_376430000A_000383,慈湖陵寢（前慈湖）,桃園市,大溪區,桃園市335大溪區復興路一段1097號,ChIJ-Thwpa8XaDQRNURc_tM4KBY,先總統 蔣公陵寢,4.1,3944,"['tourist_attraction', 'point_of_interest', 'establishment']",335台灣桃園市大溪區復興路一段1097號,121.2992519,24.8421033,OPERATIONAL
C1_376430000A_000383,慈湖陵寢（前慈湖）,桃園市,大溪區,桃園市335大溪區復興路一段1097號,ChIJUUc1X7EXaDQRtDVoFx82_0E,前慈湖,4.6,14,"['point_of_interest', 'establishment']",335台灣桃園市大溪區北橫公路1087號,121.2923231,24.8404259,OPERATIONAL
C1_376430000A_000383,慈湖陵寢（前慈湖）,桃園市,大溪區,桃園市335大溪區復興路一段1097號,ChIJSS7oZ64XaDQRuPrZJvoCTcg,前慈湖,4.5,25,"['natural_feature', 'establishment']",335台灣桃園市大溪區前慈湖,121.2987552,24.8405084,
C1_376430000A_000383,慈湖陵寢（前慈湖）,桃園市,大溪區,桃園市335大溪區復興路一段1097號,ChIJv1s1Nq4XaDQRL5JfRNCgYlc,前慈湖步道,3.9,51,"['park', 'point_of_interest', 'establishment']",335台灣桃園市大溪區復興路一段1097號,121.2947904,24.8406991,OPERATIONAL
C1_376430000A_000386,後慈湖,桃園市,大溪區,桃園市335大溪區桃118-1鄉道,ChIJ2zondq8XaDQR-SqOGK7H4oM,後慈湖秘境步道,4.4,237,"['tourist_attraction', 'park', 'point_of_interest', 'establishment']",335台灣桃園市大溪區,121.3001514,24.8439474,OPERATIONAL
C1_376430000A_000386,後慈湖,桃園市,大溪區,桃園市335大溪區桃118-1鄉道,ChIJWYOc2aUXaDQRrUujmHwTYAA,後慈湖,4.5,82,"['natural_feature', 'establishment']",335台灣桃園市大溪區後慈湖,121.3025095,24.8451204,
C1_376430000A_000386,後慈湖,桃園市,大溪區,桃園市335大溪區桃118-1鄉道,ChIJR9jt2aUXaDQRA-jv3ES75Is,後慈湖,4.3,1719,"['tourist_attraction', 'point_of_interest', 'establishment']",335台灣桃園市大溪區承恩路20號,121.302385,24.845252,CLOSED_TEMPORARILY
C1_376430000A_000389,大溪木藝生態博物館﹣木家具館,桃園市,大溪區,桃園市335大溪區普濟路21-3號,ChIJPQpzaiAYaDQReaoRJIj0aIQ,工藝交流館,4.4,139,"['museum', 'point_of_interest', 'establishment']",335台灣桃園市大溪區普濟路7號,121.2870256,24.8801723,OPERATIONAL
C1_376430000A_000389,大溪木藝生態博物館﹣木家具館,桃園市,大溪區,桃園市335大溪區普濟路21-3號,ChIJW80Mgr0ZaDQR_8wI178hypU,工藝基地,4.7,29,"['museum', 'point_of_interest', 'establishment']",335台灣桃園市大溪區普濟路13巷11號,121.2865876,24.8802901,OPERATIONAL
C1_376430000A_000389,大溪木藝生態博物館﹣木家具館,桃園市,大溪區,桃園市335大溪區普濟路21-3號,ChIJTcY5OiAYaDQRajctdjMUaH0,桃園大溪木藝生態博物館,4.5,494,"['museum', 'point_of_interest', 'establishment']",335台灣桃園市大溪區普濟路11號辦公室後棟2樓,121.2867171,24.8807421,OPERATIONAL
C1_376430000A_000389,大溪木藝生態博物館﹣木家具館,桃園市,大溪區,桃園市335大溪區普濟路21-3號,ChIJYzcTXx8YaDQRmoxhDCnC3Aw,壹號館-大溪木藝生態博物館,4.3,630,"['museum', 'tourist_attraction', 'point_of_interest', 'establishment']",335台灣桃園市大溪區中正路68號,121.2854335,24.8833188,OPERATIONAL
C1_376430000A_000389,大溪木藝生態博物館﹣木家具館,桃園市,大溪區,桃園市335大溪區普濟路21-3號,ChIJT8JQFX8ZaDQR3kxiwcn0k7o,木生活館,4.5,79,"['museum', 'food', 'point_of_interest', 'store', 'establishment']",335台灣桃園市大溪區普濟路21-3號,121.2850214,24.8817078,OPERATIONAL
C1_376430000A_000389,大溪木藝生態博物館﹣木家具館,桃園市,大溪區,桃園市335大溪區普濟路21-3號,ChIJeT4jNyAYaDQRumbvXFRrlVI,藝師館,4.5,415,"['museum', 'tourist_attraction', 'point_of_interest', 'establishment']",335台灣桃園市大溪區普濟路52號,121.2866426,24.8810253,OPERATIONAL
C1_376430000A_000389,大溪木藝生態博物館﹣木家具館,桃園市,大溪區,桃園市335大溪區普濟路21-3號,ChIJoVPC3vcZaDQR9i6DBszFHoQ,木育教室-大溪木藝生態博物館,4.4,8,"['point_of_interest', 'establishment']",335台灣桃園市大溪區普濟路35號,121.2858492,24.8812528,OPERATIONAL
C1_376430000A_000389,大溪木藝生態博物館﹣木家具館,桃園市,大溪區,桃園市335大溪區普濟路21-3號,ChIJzVmCv2wZaDQRDaJIUhlp46Y,大溪歷史館,4.4,310,"['museum', 'tourist_attraction', 'point_of_interest', 'establishment']",335台灣桃園市大溪區普濟路23號,121.2864999,24.8809015,OPERATIONAL
C1_376430000A_000389,大溪木藝生態博物館﹣木家具館,桃園市,大溪區,桃園市335大溪區普濟路21-3號,ChIJDRg2eAAZaDQRyfpngi-Irxk,大溪創生館,3.6,20,"['museum', 'point_of_interest', 'establishment']","No. 48, 中山路大溪區桃園市台灣 335",121.2858766,24.8820179,OPERATIONAL
C1_376430000A_000389,大溪木藝生態博物館﹣木家具館,桃園市,大溪區,桃園市335大溪區普濟路21-3號,ChIJJcaqOZAZaDQRbXZaA8L_GKA,四連棟-大溪木藝生態博物館無障礙廁所,4.5,6,"['point_of_interest', 'establishment']",335台灣桃園市大溪區335,121.2864101,24.8807029,OPERATIONAL
C1_376430000A_000392,大溪木藝生態博物館﹣武德殿,桃園市,大溪區,桃園市335大溪區普濟路33-3號,ChIJ7SajLyAYaDQRBbRIm4zhlIA,大溪武德殿,4.4,1395,"['tourist_attraction', 'museum', 'point_of_interest', 'establishment']",335台灣桃園市大溪區普濟路33-3號,121.286129,24.881083,OPERATIONAL
C1_376430000A_000395,大溪中正公園,桃園市,大溪區,桃園市335大溪區普濟路,ChIJAcbxQSIYaDQRY-uNQ8Xq704,大溪中正公園,4.2,2771,"['park', 'tourist_attraction', 'point_of_interest', 'establishment']",335台灣桃園市大溪區大溪老街,121.2848253,24.8838835,OPERATIONAL
C1_376430000A_000398,頭寮大池賞鳥,桃園市,大溪區,桃園市335大溪區頭寮新福圳,ChIJFz5tuTQWaDQR9-ze5Zuh3e4,頭寮大埤,3.9,101,"['tourist_attraction', 'park', 'point_of_interest', 'establishment']",335台灣桃園市大溪區,121.2814454,24.8365052,OPERATIONAL
C1_376430000A_000400,百吉林蔭步道,桃園市,大溪區,桃園市335大溪區北橫公路，過慈湖，約台七線5公里處,ChIJK2Eqfg8XaDQRSA_Heo-NhTk,百吉林蔭步道,4.6,147,"['park', 'point_of_interest', 'establishment']",335台灣桃園市大溪區,121.3074309,24.8389442,OPERATIONAL
C1_376430000A_000405,御成路古道,桃園市,大溪區,桃園市335大溪區瑞安路一段268號進入或桃園市國防大學中正嶺旁進入,ChIJJYjAEB0YaDQRgTcF2YSLf9Y,御成路古道(九號崎),4.1,180,"['park', 'tourist_attraction', 'point_of_interest', 'establishment']",335台灣桃園市大溪區,121.2763243,24.8837381,OPERATIONAL
C1_376430000A_000407,富田香草休閒農場(富田花園農場),桃園市,大溪區,桃園市335大溪區福安里3鄰頭寮一路29巷59號,ChIJmU6gC7cXaDQRMjiZqEthVzE,富田花園農場,4.0,3906,"['point_of_interest', 'establishment']",335台灣桃園市大溪區福安里頭寮一路29巷59號,121.2882214,24.8390889,OPERATIONAL
C1_376430000A_000411,李騰芳古宅,桃園市,大溪區,桃園市335大溪區月眉路198巷32號,ChIJwSedXToYaDQRRzDG24ZPDzc,李騰芳古宅,4.4,4771,"['tourist_attraction', 'museum', 'point_of_interest', 'establishment']",335台灣桃園市大溪區月眉路198巷32號,121.2957123,24.8909058,OPERATIONAL
C1_376430000A_000414,大溪老街,桃園市,大溪區,桃園市335大溪區和平路、中山路,ChIJTcPsOCIYaDQRcgNlt8b8tp4,大溪老街,4.2,57229,"['tourist_attraction', 'point_of_interest', 'establishment']",335台灣桃園市大溪區和平路,121.2874784,24.8851861,OPERATIONAL
C1_376430000A_000414,大溪老街,桃園市,大溪區,桃園市335大溪區和平路、中山路,ChIJwTFlsiEYaDQRkO8p9Dqtcgw,中央老街,4.2,171,"['point_of_interest', 'establishment']",335台灣桃園市大溪區中央路103號號,121.287624,24.8814999,OPERATIONAL
C1_376430000A_000414,大溪老街,桃園市,大溪區,桃園市335大溪區和平路、中山路,ChIJCeMM4OsZaDQR1xBjtlwu2Vg,大溪老街,4.4,135,"['cafe', 'food', 'point_of_interest', 'establishment']",335台灣桃園市大溪區,121.2850462,24.8856422,OPERATIONAL
C1_376430000A_000423,東和音樂體驗館,桃園市,大溪區,桃園市335大溪區信義路226號,ChIJS-0RFyUYaDQRr6-oJNVQcqI,東和音樂體驗館,4.3,624,"['tourist_attraction', 'point_of_interest', 'establishment']",335台灣桃園市大溪區信義路226號,121.2950188,24.8859612,OPERATIONAL
C1_376430000A_000477,龜山第一河濱公園,桃園市,龜山區,桃園市333龜山區同心二路旁,ChIJAQAAABAfaDQRTCcSq05Yq30,龜山第一河濱公園,4.2,1443,"['park', 'tourist_attraction', 'point_of_interest', 'establishment']",333台灣桃園市龜山區同心二路,121.330226,24.9947671,OPERATIONAL
C1_376430000A_000478,五酒桶山步道,桃園市,蘆竹區,桃園市338蘆竹區長興路一段230巷,ChIJ6WwGCGmgQjQRaH448cY9ONg,五酒桶山步道,4.4,4656,"['tourist_attraction', 'park', 'point_of_interest', 'establishment']",338台灣桃園市蘆竹區長興路一段230巷,121.2939346,25.0659602,OPERATIONAL
C1_376430000A_000479,台灣高鐵桃園站,桃園市,中壢區,桃園市320中壢區高鐵北路一段6號,ChIJQycC2wchaDQRyBIVISFI39o,高鐵桃園站,4.0,234,"['transit_station', 'point_of_interest', 'establishment']",320台灣桃園市中壢區,121.2144021,25.012876,OPERATIONAL
C1_376430000A_000479,台灣高鐵桃園站,桃園市,中壢區,桃園市320中壢區高鐵北路一段6號,ChIJmRn3UREgaDQRCksjJ9hY78Q,桃園,4.3,2531,"['train_station', 'transit_station', 'point_of_interest', 'establishment']",320台灣桃園市中壢區高鐵北路一段6號,121.2147817,25.0130484,OPERATIONAL
C1_376430000A_000481,林家古厝休閒農場,桃園市,觀音區,桃園市328觀音區大富路221號,ChIJt2i7GiEmaDQRZl1y5T5X1P4,林家古厝休閒農場,3.9,1624,"['restaurant', 'tourist_attraction', 'food', 'point_of_interest', 'store', 'establishment']",328台灣桃園市觀音區大富路221號,121.1286924,24.9988282,OPERATIONAL
C1_376430000A_000483,蓮荷園休閒農場,桃園市,觀音區,桃園市328觀音區藍埔里11鄰金華路690號,ChIJST7H3HomaDQREHDxorRttMc,蓮荷園休閒農場 蓮子冰.蓮子餐,3.9,2337,"['point_of_interest', 'establishment']",328台灣桃園市觀音區金華路690號,121.115819,25.012804,CLOSED_TEMPORARILY
C1_376430000A_000487,九斗休閒農場,桃園市,新屋區,桃園市327新屋區九斗里五谷路205號,ChIJ_a1WSlQkaDQRoR1MBU0fbAI,九斗村農場(官方LINEID:@abc101洽詢、預約請加入)團康大型活動 家庭日 戶外教學 迎新露營 有機農場生態現採蔬果 推薦人氣好玩,4.8,11579,"['point_of_interest', 'establishment']",327台灣桃園市新屋區五谷路205號,121.1289554,24.9607349,OPERATIONAL
C1_376430000A_000494,溪口台地,桃園市,復興區,桃園市336復興區溪口路107號,ChIJe7QxRM4WaDQRdeHSDf-hozw,溪口台地風景區,4.3,246,"['point_of_interest', 'establishment']",336台灣桃園市復興區溪口路107號,121.3465791,24.8091971,OPERATIONAL
C1_376430000A_000502,光泉牛奶園地（大園廠）,桃園市,大園區,桃園市337大園區大觀路1249號,ChIJPecslDcnaDQRs_Ke5cdhQy0,光泉牧場股份有限公司 大園廠,4.1,117,"['food', 'point_of_interest', 'establishment']",337台灣桃園市大園區大觀路1249號,121.160877,25.0553434,OPERATIONAL
C1_376430000A_000503,金車咖啡文教館,桃園市,中壢區,桃園市320中壢區榮民南路412號,ChIJO09QG3MiaDQRKZn8L49_h0o,金車咖啡文教館(請先來電預約),4.0,266,"['tourist_attraction', 'point_of_interest', 'establishment']",320台灣桃園市中壢區榮民南路412號,121.2544814,24.9481984,OPERATIONAL
C1_376430000A_000505,八德埤塘自然生態公園,桃園市,八德區,桃園市334八德區興豐路1315號,ChIJta1C4CAZaDQRvWIC-pPjiPI,桃園八德埤塘自然生態公園,4.4,14416,"['park', 'tourist_attraction', 'point_of_interest', 'establishment']",334台灣桃園市八德區興豐路1315號,121.3112514,24.9416499,OPERATIONAL
C1_376430000A_000506,青塘園,桃園市,中壢區,桃園市320中壢區高鐵南路二段旁,ChIJ3xQBZg0haDQR8im4KSQs7T0,青塘園遊客中心-已外包非政府單位,4.2,6043,"['restaurant', 'bar', 'food', 'point_of_interest', 'store', 'establishment']",320台灣桃園市中壢區文德路300號,121.2044454,25.0052757,OPERATIONAL
C1_376430000A_000511,桃園藝文廣場,桃園市,桃園區,桃園市330桃園區中正路1188號,ChIJLTt947AfaDQRTSaeSJv68bo,桃園藝文廣場,4.4,13674,"['park', 'tourist_attraction', 'point_of_interest', 'establishment']",330台灣桃園市桃園區中正路1188號,121.2999961,25.0174923,OPERATIONAL
C1_376430000A_000583,小烏來天空步道,桃園市,復興區,桃園市336復興區義盛里下宇內1鄰4-6號,ChIJDz8NPEERaDQRimiQhCRLCG4,小烏來天空步道,4.1,10799,"['tourist_attraction', 'point_of_interest', 'establishment']",336台灣桃園市復興區4-6號,121.3754843,24.7903264,OPERATIONAL
C1_376430000A_000588,原住民族文化會館,桃園市,大溪區,桃園市335大溪區員林路一段29巷101號,ChIJ0bcpLxQYaDQRm0TakXa1I7A,桃園市原住民族文化會館,4.1,835,"['tourist_attraction', 'museum', 'point_of_interest', 'establishment']",335台灣桃園市大溪區員林路一段29巷101號,121.2821232,24.8961534,OPERATIONAL
C1_376430000A_000589,佳安里(石門十一份),桃園市,龍潭區,桃園市325龍潭區佳安里佳安路2號,ChIJaQlTT7M9aDQRRiPT_ineLas,十一份觀光文化園區,4.0,884,"['tourist_attraction', 'museum', 'store', 'restaurant', 'point_of_interest', 'food', 'establishment']",325台灣桃園市龍潭區佳安里佳安西路5號,121.2397024,24.8362996,OPERATIONAL
C1_376430000A_000589,佳安里(石門十一份),桃園市,龍潭區,桃園市325龍潭區佳安里佳安路2號,ChIJ5-nOlpc9aDQRnBY5VdQ4tvc,石門大草坪,4.5,4760,"['park', 'tourist_attraction', 'point_of_interest', 'establishment']",325台灣桃園市龍潭區佳安路2號,121.24165,24.83509,OPERATIONAL
C1_376430000A_000589,佳安里(石門十一份),桃園市,龍潭區,桃園市325龍潭區佳安里佳安路2號,ChIJB9VTlJg9aDQRpN6qsa7CeEU,十一份,,0,"['neighborhood', 'political']",325台灣桃園市龍潭區十一份,121.240963,24.840076,
C1_376430000A_000591,觀音濱海遊憩區,桃園市,觀音區,桃園市328觀音區中興路469號,ChIJUREM4iUpaDQRgdyIPemocwk,觀音濱海休憩區（原觀音海水浴場）,4.4,716,"['tourist_attraction', 'point_of_interest', 'establishment']",328003台灣桃園市觀音區中興路469號,121.0762413,25.0470075,OPERATIONAL
C1_376430000A_000591,觀音濱海遊憩區,桃園市,觀音區,桃園市328觀音區中興路469號,ChIJDWK0ROopaDQRwS4KaeKGrK0,觀音濱海休憩區 - 石觀音,4.2,55,"['tourist_attraction', 'point_of_interest', 'establishment']",328台灣桃園市觀音區中興路452巷1號,121.0762922,25.0448315,OPERATIONAL
C1_376430000A_000598,大溪河濱公園,桃園市,大溪區,桃園市335大溪區大鶯路60巷89弄75號,ChIJzRhetRcYaDQRF1DpSokjfjM,大溪河濱公園,4.3,5130,"['park', 'tourist_attraction', 'point_of_interest', 'establishment']",335台灣桃園市大溪區大鶯路60巷89弄75號,121.283638,24.8932601,OPERATIONAL
C1_376430000A_000600,77巧克力共和國,桃園市,八德區,桃園市334八德區巧克力街177號,ChIJ96H7-OoYaDQROPdHKCsGUsg,77巧克力共和國,4.2,8502,"['tourist_attraction', 'museum', 'point_of_interest', 'store', 'food', 'establishment']",334台灣桃園市八德區巧克力街177號,121.2929627,24.9417755,OPERATIONAL
C1_376430000A_000601,經國紀念館﹙北橫遊客中心﹚,桃園市,大溪區,桃園市335大溪區復興路一段896號,ChIJ9dKIVpEXaDQRqKUxjtAz5bg,北橫遊客中心/停車場/北橫之驛,4.4,56,"['travel_agency', 'point_of_interest', 'establishment']",335台灣桃園市大溪區經國紀念館[台灣好行,121.2851622,24.8491295,OPERATIONAL
C1_376430000A_000601,經國紀念館﹙北橫遊客中心﹚,桃園市,大溪區,桃園市335大溪區復興路一段896號,ChIJI612eLgXaDQRmgEWHc14Dsw,經國紀念館,4.1,1425,"['tourist_attraction', 'point_of_interest', 'establishment']",335台灣桃園市大溪區復興路一段896號,121.2853645,24.8491612,OPERATIONAL
C1_376430000A_000602,老街溪河川教育中心,桃園市,中壢區,桃園市320中壢區中原路58號,ChIJpbq1mEwiaDQRrhQJKluVJqI,老街溪河川教育中心,4.3,553,"['tourist_attraction', 'point_of_interest', 'establishment']",320台灣桃園市中壢區中原路58號,121.2178779,24.9537749,OPERATIONAL
C1_376430000A_000603,江記豆腐乳文化館,桃園市,中壢區,桃園市320中壢區月眉路2段248巷85號,ChIJRyHQrUchaDQRCJ2J9jqQ9F4,江記豆腐乳文化館,4.1,80,"['tourist_attraction', 'point_of_interest', 'establishment']",320台灣桃園市中壢區月眉路二段248巷85號,121.1847809,25.0064753,OPERATIONAL
C1_376430000A_000604,太平洋自行車博物館,桃園市,新屋區,桃園市327新屋區永福路686號,ChIJ62egJvwuaDQRsl-LTK6Uuvo,太平洋自行車博物館（平日預約參觀）,4.5,720,"['museum', 'tourist_attraction', 'point_of_interest', 'establishment']",32744台灣桃園市新屋區永福路686號,121.0321558,24.9859932,OPERATIONAL
C1_376430000A_000605,巴陵古道生態園區,桃園市,復興區,桃園市336復興區華陵里7鄰29號,ChIJQ8kXh8lsaDQRMuJIARo9QVI,巴陵古道生態園區,4.5,679,"['tourist_attraction', 'park', 'point_of_interest', 'establishment']",336台灣桃園市復興區,121.3831577,24.679591,OPERATIONAL
C1_376430000A_000616,桃園1-4號生態埤塘,桃園市,桃園區,桃園市330桃園區國際路一段863號,ChIJqX0exj4faDQR1eFwsuBElHQ,桃園1-4號生態埤塘,4.0,687,"['park', 'tourist_attraction', 'point_of_interest', 'establishment']",330台灣桃園市桃園區國際路一段863號,121.2895453,24.9799896,OPERATIONAL
C1_376430000A_000617,好時節休閒農場 (好時節農莊),桃園市,大溪區,桃園市335大溪區康莊路三段225號,ChIJb-4jX-oXaDQRy66ifyq3-2Y,好時節休閒農場 │親子旅遊 │校外教學 │環境教育 │手作體驗 │食農教育 │循環農業 │友善耕作 │團體旅遊,4.2,1821,"['tourist_attraction', 'restaurant', 'point_of_interest', 'food', 'establishment']",335台灣桃園市大溪區康莊路三段225號,121.2821476,24.8542765,OPERATIONAL
C1_376430000A_000618,老街溪水岸自行車道,桃園市,中壢區,桃園市320中壢區環北路87號,ChIJC68yETsjaDQRyNBs6Cd5gos,老街溪河濱自行車(步)道,4.4,48,"['point_of_interest', 'establishment']",320台灣桃園市中壢區環北路87號,121.2187063,24.9673763,OPERATIONAL
C1_376430000A_000618,老街溪水岸自行車道,桃園市,中壢區,桃園市320中壢區環北路87號,ChIJW-ybUzIiaDQRmiv0it68P7c,老街溪水岸綠廊,4.4,152,"['park', 'point_of_interest', 'establishment']",320台灣桃園市中壢區環北路107號,121.2201291,24.9662666,OPERATIONAL
C1_376430000A_000619,新勢公園,桃園市,平鎮區,桃園市324平鎮區延平路中豐路口,ChIJqR-aSrMjaDQRAYHNtGF1MPE,新勢公園,4.4,7386,"['park', 'tourist_attraction', 'point_of_interest', 'establishment']",324台灣桃園市平鎮區延平路中豐路口,121.2167255,24.9518336,OPERATIONAL
C1_376430000A_000651,大古山步道,桃園市,蘆竹區,桃園市338蘆竹區大古路228號,ChIJr165EKKhQjQRvuBuriVEf20,桃園大古山登山步道公園,4.5,705,"['park', 'point_of_interest', 'establishment']",338台灣桃園市蘆竹區大古路228號,121.2903425,25.1012682,OPERATIONAL
C1_376430000A_000652,羊稠森林步道,桃園市,蘆竹區,桃園市338蘆竹區中山路羊稠街,ChIJO2VamoigQjQRvoXM5V0yoY4,羊稠坑,,0,"['neighborhood', 'political']",338台灣桃園市蘆竹區羊稠坑,121.312194,25.054171,
C1_376430000A_000653,長流當代美術館(桃園館),桃園市,蘆竹區,桃園市338蘆竹區中山路21號,ChIJP1SDQ3mgQjQRP_8HJhKPC4s,長流當代美術館 桃園館,4.0,61,"['art_gallery', 'tourist_attraction', 'museum', 'home_goods_store', 'store', 'point_of_interest', 'establishment']",338台灣桃園市蘆竹區中山路21號,121.3017632,25.0499048,OPERATIONAL
C1_376430000A_000655,龍情‧魔幻豆子主題館,桃園市,大溪區,桃園市335大溪區復興路一段900號,ChIJVSi_7ccXaDQRcHeZqWo0PNs,龍情 魔幻豆子主題館,3.7,1366,"['tourist_attraction', 'point_of_interest', 'establishment']",335台灣桃園市大溪區復興路一段900號,121.2847193,24.8480768,OPERATIONAL
C1_376430000A_000957,祥儀機器人夢工廠,桃園市,桃園區,桃園市330桃園區桃鶯路461號,ChIJQXpsNsIeaDQRlczNBf4hxkY,祥儀機器人夢工廠,4.3,2605,"['tourist_attraction', 'museum', 'store', 'point_of_interest', 'establishment']",330台灣桃園市桃園區桃鶯路461號,121.3238495,24.975277,OPERATIONAL
C1_376430000A_000958,卡司‧蒂菈樂園（金格觀光工廠）,桃園市,蘆竹區,桃園市338蘆竹區大竹北路90-66號,ChIJWzIjLwAhaDQR8isA2KWS_jA,金格丨卡司‧蒂菈樂園,5.0,17,"['tourist_attraction', 'point_of_interest', 'establishment']",338台灣桃園市蘆竹區大竹北路90-66號,121.2533755,25.0311013,OPERATIONAL
C1_376430000A_000958,卡司‧蒂菈樂園（金格觀光工廠）,桃園市,蘆竹區,桃園市338蘆竹區大竹北路90-66號,ChIJHRfjcqsfaDQR_VUwjusS5UM,金格觀光工廠｜卡司·蒂菈樂園,4.0,4540,"['tourist_attraction', 'bakery', 'store', 'point_of_interest', 'food', 'establishment']",338台灣桃園市蘆竹區大竹北路90之66號,121.2534857,25.0315274,OPERATIONAL
C1_376430000A_000959,興仁夜市,桃園市,八德區,桃園市334八德區長興路46號,ChIJhxiHRNIYaDQRFG2a2zEPDZ0,八德興仁花園夜市,4.3,26194,"['amusement_park', 'tourist_attraction', 'restaurant', 'food', 'point_of_interest', 'store', 'establishment']",334台灣桃園市八德區長興路46號,121.283119,24.930651,OPERATIONAL
C1_376430000A_000960,霄裡大池(霄裡池),桃園市,八德區,桃園市334八德區龍南路與洪圳路交叉口,ChIJiTuM6ZsiaDQRJmaZWnZ4Wkk,霄裡大池（霄裡池）,4.0,233,"['park', 'point_of_interest', 'establishment']",334台灣桃園市八德區,121.2558408,24.9142574,OPERATIONAL
C1_376430000A_000960,霄裡大池(霄裡池),桃園市,八德區,桃園市334八德區龍南路與洪圳路交叉口,ChIJVVVVkZsiaDQRBRKKgsnD7Xg,霄裡大池落羽松林,3.8,2186,"['tourist_attraction', 'point_of_interest', 'establishment']",334台灣桃園市八德區龍南路與號洪圳路交叉口,121.256286,24.9131725,OPERATIONAL
C1_376430000A_000960,霄裡大池(霄裡池),桃園市,八德區,桃園市334八德區龍南路與洪圳路交叉口,ChIJB6_q7ZsiaDQR_QWbiI1vD70,霄裡池,3.9,57,"['natural_feature', 'establishment']",334台灣桃園市八德區霄裡池,121.2558408,24.9142574,
C1_376430000A_000961,許厝港濕地,桃園市,大園區,桃園市337大園區老街溪河口右岸,ChIJ6fgWOAaeQjQRxVjRDAnpP2I,許厝港濕地,4.4,3273,"['tourist_attraction', 'park', 'point_of_interest', 'establishment']",337台灣桃園市大園區老街溪河口右岸,121.1762524,25.0873338,OPERATIONAL
C1_376430000A_000963,大溪老茶廠,桃園市,大溪區,桃園市335大溪區新峰里1鄰復興路二段732巷80號,ChIJNRoI4B4XaDQRl0iNJO8_NOc,大溪老茶廠,4.2,4233,"['tourist_attraction', 'food', 'point_of_interest', 'establishment']",335台灣桃園市大溪區復興路二段732巷80號,121.328373,24.8306561,OPERATIONAL
C1_376430000A_000964,馬祖新村眷村文創園區,桃園市,中壢區,桃園市320中壢區龍吉二街155號,ChIJBXB4Zl4iaDQRAd3u_l2VuI0,馬祖新村眷村文創園區,4.2,8256,"['tourist_attraction', 'point_of_interest', 'establishment']",320台灣桃園市中壢區龍吉二街155號,121.2377896,24.9355882,OPERATIONAL
C1_376430000A_000965,中壢觀光夜市,桃園市,中壢區,桃園市320中壢區新明路,ChIJTVRKncojaDQR3W-T_3sKgx4,中壢區觀光夜市,4.2,44388,"['tourist_attraction', 'point_of_interest', 'establishment']",320台灣桃園市中壢區新明路,121.2151627,24.9599913,OPERATIONAL
C1_376430000A_000966,中原商圈 (中原夜市),桃園市,中壢區,桃園市320中壢區中原大學周邊(實踐路與日新路),ChIJM8xOcBUiaDQR0Yg-Bnzg3io,中原夜市,4.2,26964,"['tourist_attraction', 'point_of_interest', 'establishment']",320台灣桃園市中壢區實踐路日新路,121.240614,24.9556104,OPERATIONAL
C1_376430000A_000967,中平路商圈,桃園市,中壢區,桃園市320中壢區中平路66號,ChIJE4BpPEoiaDQRtgb3dT8nkdo,中平商圈徒步區,3.9,1677,"['tourist_attraction', 'point_of_interest', 'establishment']",320台灣桃園市中壢區中平路66號,121.2258517,24.9542255,OPERATIONAL
C1_376430000A_000968,羊世界牧場,桃園市,中壢區,桃園市320中壢區三芝路169號,ChIJ7QdPAtYjaDQRKChY_Zwm-U4,羊世界牧場,3.9,2603,"['school', 'point_of_interest', 'establishment']",320台灣桃園市中壢區三芝路169號,121.2103067,24.9819972,OPERATIONAL
C1_376430000A_000968,羊世界牧場,桃園市,中壢區,桃園市320中壢區三芝路169號,ChIJuYUp5X0haDQRr8KOsBJD098,羊世界教學休閒牧場停車場,4.0,95,"['parking', 'point_of_interest', 'establishment']",台灣桃園市中壢區,121.210576,24.982274,OPERATIONAL
C1_376430000A_000969,桃園觀光夜市,桃園市,桃園區,桃園市330桃園區中正路與北埔路口,ChIJ4crHk6ofaDQRE3cC4KSFkuo,桃園觀光夜市,4.0,19656,"['tourist_attraction', 'point_of_interest', 'establishment']",330台灣桃園市桃園區中正路與號北埔路交叉口,121.3060018,25.0026972,OPERATIONAL
C1_376430000A_000971,虎頭山環保公園,桃園市,桃園區,桃園市330桃園區成功路三段,ChIJC6k1zUMeaDQRmZrIiz-6fLo,虎頭山環保公園,4.5,10065,"['park', 'tourist_attraction', 'point_of_interest', 'establishment']",330台灣桃園市桃園區成功路三段,121.3283886,25.0120385,OPERATIONAL
C1_376430000A_000972,楓樹坑,桃園市,龜山區,桃園市333龜山區楓樹里中坑街、風尾街,ChIJHyNBKnAeaDQR1_d4YV9j6lo,桃園楓樹坑步道,4.1,110,"['tourist_attraction', 'point_of_interest', 'establishment']",333台灣桃園市龜山區光峰路281巷12弄,121.3414675,25.0067426,OPERATIONAL
C1_376430000A_000972,楓樹坑,桃園市,龜山區,桃園市333龜山區楓樹里中坑街、風尾街,ChIJu7NFXXEfaDQR_791DQkk_9Q,楓樹坑生態步道,3.9,8,"['tourist_attraction', 'point_of_interest', 'establishment']",333台灣桃園市龜山區風尾街,121.3408302,25.0150638,OPERATIONAL
C1_376430000A_000972,楓樹坑,桃園市,龜山區,桃園市333龜山區楓樹里中坑街、風尾街,ChIJ3aFwUhAeaDQRWYdEaETmwOM,龜山楓樹伯朗大道,4.2,340,"['park', 'point_of_interest', 'establishment']",333台灣桃園市龜山區,121.3416261,25.0140377,OPERATIONAL
C1_376430000A_000972,楓樹坑,桃園市,龜山區,桃園市333龜山區楓樹里中坑街、風尾街,ChIJC-d2QxAeaDQRAMqJFRZtxYI,楓樹坑,,0,"['neighborhood', 'political']",333台灣桃園市龜山區楓樹坑,121.340744,25.024107,
C1_376430000A_000973,忠貞商圈,桃園市,中壢區,桃園市324平鎮區由龍岡圓環的龍南路延伸至新生路、龍東路延伸至中山東路三段,ChIJF2lrYX0iaDQRRFcxywwzicw,忠貞市場,4.3,13681,"['tourist_attraction', 'point_of_interest', 'establishment']",320台灣桃園市中壢區貿五路18號對面號,121.2528074,24.9278018,OPERATIONAL
C1_376430000A_000973,忠貞商圈,桃園市,中壢區,桃園市324平鎮區由龍岡圓環的龍南路延伸至新生路、龍東路延伸至中山東路三段,ChIJN-S4QIciaDQRJ3Gex8_dr1c,阿美米干 旗艦店,4.3,9104,"['restaurant', 'point_of_interest', 'food', 'establishment']",324台灣桃園市平鎮區中山路142號,121.2557208,24.9273741,OPERATIONAL
C1_376430000A_000973,忠貞商圈,桃園市,中壢區,桃園市324平鎮區由龍岡圓環的龍南路延伸至新生路、龍東路延伸至中山東路三段,ChIJ67aPFYciaDQRerlg1zaV_sg,阿美金三角點心(忠貞商圈),4.4,649,"['store', 'restaurant', 'point_of_interest', 'food', 'establishment']",324台灣桃園市平鎮區中山路134號,121.255596,24.9274939,OPERATIONAL
C1_376430000A_000973,忠貞商圈,桃園市,中壢區,桃園市324平鎮區由龍岡圓環的龍南路延伸至新生路、龍東路延伸至中山東路三段,ChIJ97R2Fs0jaDQRKXjjFBkZsgc,忠貞市場,4.9,10,"['tourist_attraction', 'point_of_interest', 'establishment']",320台灣桃園市中壢區前龍街27號,121.2533965,24.9292051,OPERATIONAL
C1_376430000A_000973,忠貞商圈,桃園市,中壢區,桃園市324平鎮區由龍岡圓環的龍南路延伸至新生路、龍東路延伸至中山東路三段,ChIJa9I_f4giaDQRly4_Gze1G9Y,忠貞市場,4.2,813,"['point_of_interest', 'establishment']",320台灣桃園市中壢區龍平路110號,121.2532293,24.9289002,OPERATIONAL
C1_376430000A_000973,忠貞商圈,桃園市,中壢區,桃園市324平鎮區由龍岡圓環的龍南路延伸至新生路、龍東路延伸至中山東路三段,ChIJ5znTZH0iaDQR0gprtGDT5LY,版納傣味,4.3,1258,"['restaurant', 'point_of_interest', 'food', 'establishment']",320台灣桃園市中壢區前龍街16號,121.2533065,24.9295057,OPERATIONAL
C1_376430000A_000973,忠貞商圈,桃園市,中壢區,桃園市324平鎮區由龍岡圓環的龍南路延伸至新生路、龍東路延伸至中山東路三段,ChIJgTE3NBQjaDQRSw1P4TCrrNs,忠貞新村好物市集,4.9,8,"['point_of_interest', 'food', 'establishment']",324台灣桃園市平鎮區貿東路29號,121.2537091,24.9273466,OPERATIONAL
C1_376430000A_000973,忠貞商圈,桃園市,中壢區,桃園市324平鎮區由龍岡圓環的龍南路延伸至新生路、龍東路延伸至中山東路三段,ChIJ1cZJKtgjaDQRTLWr1gfPYFw,魅力金三角形象商圈,4.6,29,"['tourist_attraction', 'point_of_interest', 'establishment']",324台灣桃園市平鎮區中山路68號,121.2543702,24.9279018,OPERATIONAL
C1_376430000A_000973,忠貞商圈,桃園市,中壢區,桃園市324平鎮區由龍岡圓環的龍南路延伸至新生路、龍東路延伸至中山東路三段,ChIJ922kYn0iaDQRUbKR_AN0wws,忠貞誠米干,4.2,2376,"['restaurant', 'point_of_interest', 'food', 'establishment']",320台灣桃園市中壢區前龍街38號,121.2532534,24.9291117,OPERATIONAL
C1_376430000A_000973,忠貞商圈,桃園市,中壢區,桃園市324平鎮區由龍岡圓環的龍南路延伸至新生路、龍東路延伸至中山東路三段,ChIJe0IjvX0iaDQRL791HFJFv8I,忠貞米干,4.4,1720,"['restaurant', 'point_of_interest', 'food', 'establishment']",320台灣桃園市中壢區中正五路210號,121.254851,24.9302092,OPERATIONAL
C1_376430000A_000973,忠貞商圈,桃園市,中壢區,桃園市324平鎮區由龍岡圓環的龍南路延伸至新生路、龍東路延伸至中山東路三段,ChIJKVfdhn0iaDQRhm3YgHCDEE8,雲南文化公園,4.0,1257,"['park', 'tourist_attraction', 'point_of_interest', 'establishment']",324台灣桃園市平鎮區忠貞一街,121.2550615,24.9287162,OPERATIONAL
C1_376430000A_000973,忠貞商圈,桃園市,中壢區,桃園市324平鎮區由龍岡圓環的龍南路延伸至新生路、龍東路延伸至中山東路三段,ChIJYb28c3kjaDQR8FBrz2nnHAc,忠貞新村文化園區,4.5,836,"['point_of_interest', 'establishment']",324台灣桃園市平鎮區中山路70號,121.2543322,24.9276297,OPERATIONAL
C1_376430000A_000973,忠貞商圈,桃園市,中壢區,桃園市324平鎮區由龍岡圓環的龍南路延伸至新生路、龍東路延伸至中山東路三段,ChIJMyF6OvUjaDQRIRfIBHJtCro,阿美米干1981,4.3,1105,"['restaurant', 'point_of_interest', 'food', 'establishment']",324台灣桃園市平鎮區中山路62號,121.2542566,24.9279633,OPERATIONAL
C1_376430000A_000973,忠貞商圈,桃園市,中壢區,桃園市324平鎮區由龍岡圓環的龍南路延伸至新生路、龍東路延伸至中山東路三段,ChIJx4pnEO0jaDQRpC11PUuffbM,龍岡忠貞市場,4.3,36,"['restaurant', 'point_of_interest', 'food', 'establishment']",320台灣桃園市中壢區龍東路194巷22號,121.2530599,24.9293823,OPERATIONAL
C1_376430000A_000973,忠貞商圈,桃園市,中壢區,桃園市324平鎮區由龍岡圓環的龍南路延伸至新生路、龍東路延伸至中山東路三段,ChIJtVK_gIciaDQR656XW7oO1hE,忠貞雲鄉米干本店,4.2,861,"['store', 'restaurant', 'point_of_interest', 'food', 'establishment']",32093台灣桃園市中壢區龍平路207號,121.2537328,24.9288502,OPERATIONAL
C1_376430000A_000973,忠貞商圈,桃園市,中壢區,桃園市324平鎮區由龍岡圓環的龍南路延伸至新生路、龍東路延伸至中山東路三段,ChIJ5Q0PRvMjaDQRIOP3E-y4wzg,阿美米干 園區店,4.7,603,"['restaurant', 'point_of_interest', 'food', 'establishment']",324台灣桃園市平鎮區中山路34號,121.2536991,24.9277541,OPERATIONAL
C1_376430000A_000973,忠貞商圈,桃園市,中壢區,桃園市324平鎮區由龍岡圓環的龍南路延伸至新生路、龍東路延伸至中山東路三段,ChIJqSjC9X0iaDQRxmL7lXtA4fE,忠貞市場,4.6,10,"['transit_station', 'point_of_interest', 'establishment']",324台灣桃園市平鎮區,121.25578,24.92865,OPERATIONAL
C1_376430000A_000974,比亞外部落,桃園市,復興區,桃園市336復興區北部橫貫公路（台7線）36公里,ChIJv6ZSLH0TaDQR8VopHHjyR04,比亞外,4.8,9,"['point_of_interest', 'establishment']",336台灣桃園市復興區,121.3540868,24.7268739,OPERATIONAL
C1_376430000A_000975,義興吊橋,桃園市,復興區,桃園市336復興區羅浮(羅馬公路桃118線起點),ChIJI7Ag6kURaDQRvBhlsYn7b2Y,義興吊橋,4.4,821,"['tourist_attraction', 'point_of_interest', 'establishment']",336台灣桃園市復興區,121.366919,24.790149,OPERATIONAL
C1_376430000A_000977,富岡老街,桃園市,楊梅區,桃園市326楊梅區中正路、信義路、民生街,ChIJjYS92vcvaDQR1eYf76WgK7A,富岡老街,3.8,1740,"['tourist_attraction', 'point_of_interest', 'establishment']",326台灣桃園市楊梅區中正路信義路,121.0830377,24.9350801,OPERATIONAL
C1_376430000A_000978,秀才登山步道,桃園市,楊梅區,桃園市326楊梅區秀才路845巷(天德堂後方),ChIJZYDbLxc7aDQRYMozi5olaqA,秀才登山步道,4.3,1589,"['tourist_attraction', 'park', 'point_of_interest', 'establishment']",326台灣桃園市楊梅區,121.1449932,24.8819154,OPERATIONAL
C1_376430000A_000979,大平紅橋,桃園市,龍潭區,桃園市325龍潭區石門路53號,ChIJYYyRrpY9aDQR6aAGNbJuHeg,大平紅橋,4.1,3305,"['tourist_attraction', 'point_of_interest', 'establishment']",325台灣桃園市龍潭區石門路53號,121.2455461,24.8312646,OPERATIONAL
C1_376430000A_000980,憲光二村,桃園市,龜山區,桃園市333龜山區大同路138巷,ChIJlUvRcogeaDQRe_zVbL-Xr74,憲光二村眷村文化園區,4.3,1130,"['tourist_attraction', 'point_of_interest', 'establishment']",333台灣桃園市龜山區大同路138巷100號,121.342201,24.9922915,OPERATIONAL
C1_376430000A_000981,眷村故事館,桃園市,龜山區,桃園市333龜山區光峰路43號,ChIJAQAAABAfaDQRjz8zTeSHzxE,龜山眷村故事館,4.1,793,"['museum', 'tourist_attraction', 'point_of_interest', 'establishment']",333台灣桃園市龜山區光峰路43號,121.3404776,24.9984435,OPERATIONAL
C1_376430000A_000983,GFun機能生活館,桃園市,觀音區,桃園市328觀音區觀音工業區工業六路3號,ChIJkQ7D_qwnaDQRMoAO932QqGQ,GFUN 聚紡機能生活館(採預約制),4.7,206,"['point_of_interest', 'store', 'establishment']",32849台灣桃園市觀音區工業六路3號,121.1170027,25.0475199,OPERATIONAL
C1_376430000A_000984,巴陵橋_巴陵大橋_巴陵舊橋,桃園市,復興區,桃園市336復興區經台7線公路往宜蘭方向，約48.5公里處,ChIJG7AecoNtaDQRYxA6qGmyUlI,巴陵雙橋休憩區,4.5,109,"['tourist_attraction', 'point_of_interest', 'establishment']",336台灣桃園市復興區336,121.3783414,24.6818663,OPERATIONAL
C1_376430000A_000984,巴陵橋_巴陵大橋_巴陵舊橋,桃園市,復興區,桃園市336復興區經台7線公路往宜蘭方向，約48.5公里處,ChIJ-Xb7d0ltaDQRz4MJJQxwVvQ,老巴陵橋,4.4,25,"['tourist_attraction', 'point_of_interest', 'establishment']",336台灣桃園市復興區橫貫公路北部支線,121.378371,24.680341,OPERATIONAL
C1_376430000A_000984,巴陵橋_巴陵大橋_巴陵舊橋,桃園市,復興區,桃園市336復興區經台7線公路往宜蘭方向，約48.5公里處,ChIJ1wzdVRBtaDQRp0OC9KOY_KY,巴陵大橋景觀台,4.8,31,"['point_of_interest', 'establishment']",336台灣桃園市復興區台7線,121.3796363,24.6804901,OPERATIONAL
C1_376430000A_000984,巴陵橋_巴陵大橋_巴陵舊橋,桃園市,復興區,桃園市336復興區經台7線公路往宜蘭方向，約48.5公里處,ChIJy9a9UDFtaDQRntnPgP78yg0,巴陵一號隧道,4.2,45,"['point_of_interest', 'establishment']",336台灣桃園市復興區巴陵橋,121.3775586,24.6816023,OPERATIONAL
C1_376430000A_000984,巴陵橋_巴陵大橋_巴陵舊橋,桃園市,復興區,桃園市336復興區經台7線公路往宜蘭方向，約48.5公里處,ChIJk6iIhMlsaDQRqcqZdym9A9w,巴陵古道入口（巴陵橋端）,4.5,1274,"['point_of_interest', 'establishment']",336台灣桃園市復興區巴陵大橋,121.3797104,24.6802366,OPERATIONAL
C1_376430000A_000984,巴陵橋_巴陵大橋_巴陵舊橋,桃園市,復興區,桃園市336復興區經台7線公路往宜蘭方向，約48.5公里處,ChIJ1wio5clsaDQRwOGSPMADYIU,舊巴陵橋,4.4,155,"['tourist_attraction', 'point_of_interest', 'establishment']",336台灣桃園市復興區巴陵橋,121.3777588,24.6812619,OPERATIONAL
C1_376430000A_000984,巴陵橋_巴陵大橋_巴陵舊橋,桃園市,復興區,桃園市336復興區經台7線公路往宜蘭方向，約48.5公里處,ChIJK75w3TVtaDQRTeH8w8TuAnc,巴陵大橋,4.7,55,"['tourist_attraction', 'point_of_interest', 'establishment']",336台灣桃園市復興區巴陵大橋,121.3794017,24.6815295,OPERATIONAL
C1_376430000A_000987,竹圃茶園小木屋休閒農場,桃園市,蘆竹區,桃園市338蘆竹區坑子里貓尾崎1-6號,ChIJfVNrMymhQjQRRYSNQIZzps0,竹圃茶園小木屋休閒農場,4.4,332,"['cafe', 'point_of_interest', 'food', 'establishment']",338台灣桃園市蘆竹區1-6號,121.3446948,25.0816555,OPERATIONAL
C1_376430000A_000988,戀戀空港灣休閒農場,桃園市,蘆竹區,桃園市338蘆竹區坑口里小古山路183-1號,ChIJUdl4abGhQjQRE3gii6xrQ7U,戀戀空港灣休閒農場,4.7,6,"['point_of_interest', 'establishment']",338台灣桃園市蘆竹區小古山路183之一號,121.2854304,25.1081049,OPERATIONAL
C1_376430000A_000989,泉園休閒農場,桃園市,蘆竹區,桃園市338蘆竹區坑口里小古山路183號,ChIJj2ur8TWhQjQRsLIJK47FBqs,泉園休閒農場,5.0,1,"['point_of_interest', 'establishment']",338台灣桃園市蘆竹區小古山路183號,121.2847415,25.1085562,OPERATIONAL
C1_376430000A_000991,耀輝牧場,桃園市,楊梅區,桃園市326楊梅區楊湖路一段654巷81弄88號,ChIJ-V6X0ColaDQRipuHJi2h16k,耀輝休閒牧場,4.2,463,"['point_of_interest', 'establishment']",326台灣桃園市楊梅區楊湖路一段654巷81弄88號,121.1228156,24.9172887,OPERATIONAL
C1_376430000A_000994,大溪木藝生態博物館﹣壹號館,桃園市,大溪區,桃園市335大溪區中正路68號,ChIJYzcTXx8YaDQRmoxhDCnC3Aw,壹號館-大溪木藝生態博物館,4.3,630,"['museum', 'tourist_attraction', 'point_of_interest', 'establishment']",335台灣桃園市大溪區中正路68號,121.2854335,24.8833188,OPERATIONAL
C1_376430000A_000994,大溪木藝生態博物館﹣壹號館,桃園市,大溪區,桃園市335大溪區中正路68號,ChIJTcY5OiAYaDQRajctdjMUaH0,桃園大溪木藝生態博物館,4.5,494,"['museum', 'point_of_interest', 'establishment']",335台灣桃園市大溪區普濟路11號辦公室後棟2樓,121.2867171,24.8807421,OPERATIONAL
C1_376430000A_000994,大溪木藝生態博物館﹣壹號館,桃園市,大溪區,桃園市335大溪區中正路68號,ChIJeT4jNyAYaDQRumbvXFRrlVI,藝師館,4.5,415,"['museum', 'tourist_attraction', 'point_of_interest', 'establishment']",335台灣桃園市大溪區普濟路52號,121.2866426,24.8810253,OPERATIONAL
C1_376430000A_000996,樂天桃園棒球場,桃園市,中壢區,桃園市320中壢區領航北路一段1號,ChIJOWWiJGwhaDQRfqPZO6lLZtE,樂天桃園棒球場,4.5,9467,"['stadium', 'point_of_interest', 'establishment']",320台灣桃園市中壢區領航北路一段1號,121.2004812,25.0008886,OPERATIONAL
C1_376430000A_000997,中平路故事館,桃園市,中壢區,桃園市320中壢區復興路99號,ChIJPSfru0kiaDQRzFHjQj4pq7Q,中平路故事館,4.3,1706,"['tourist_attraction', 'point_of_interest', 'establishment']",320台灣桃園市中壢區復興路99號,121.224438,24.9553588,OPERATIONAL
C1_376430000A_000999,楓樹腳公園,桃園市,八德區,桃園市334八德區金鎰街14巷,ChIJezcYSO8YaDQRjNLpub4HSEQ,楓樹腳公園,,0,"['park', 'premise', 'point_of_interest', 'establishment']",334台灣桃園市八德區金鎰街14巷楓樹腳公園,121.295716,24.9347381,
C1_376430000A_001000,大園公園,桃園市,大園區,桃園市337大園區大觀路與華興路口,ChIJ2y7NV58gaDQR0q4KNzcimvs,大園公園,4.2,696,"['park', 'tourist_attraction', 'point_of_interest', 'establishment']",337台灣桃園市大園區大觀路118號,121.1939192,25.0658721,OPERATIONAL
C1_376430000A_001001,大溪埔頂公園,桃園市,大溪區,桃園市335大溪區公園路與埔仁路交叉口,ChIJT_aqYmkYaDQR427DjxHNCcU,大溪埔頂公園,4.4,6282,"['tourist_attraction', 'park', 'point_of_interest', 'establishment']",335台灣桃園市大溪區公園路埔仁路交叉口,121.282686,24.9094532,OPERATIONAL
C1_376430000A_001002,三坑自然生態公園,桃園市,龍潭區,桃園市325龍潭區三坑里堤防旁,ChIJmzhLXIE9aDQRrumrssL4PmU,三坑自然生態公園,4.3,6865,"['park', 'point_of_interest', 'establishment']",325台灣桃園市龍潭區,121.2573802,24.8389549,OPERATIONAL
C1_376430000A_001003,大溪橋,桃園市,大溪區,桃園市335大溪區瑞安路一段273號,ChIJ7QuhMh8YaDQRC4idli6CBik,大溪橋,4.4,2678,"['tourist_attraction', 'point_of_interest', 'establishment']",335台灣桃園市大溪區瑞安路一段273號,121.2834562,24.8848382,OPERATIONAL
C1_376430000A_001003,大溪橋,桃園市,大溪區,桃園市335大溪區瑞安路一段273號,ChIJRa3npR4YaDQR_dDUvhgilWE,大溪觀光橋[樂活巴],4.5,11,"['transit_station', 'point_of_interest', 'establishment']",335台灣桃園市大溪區,121.28017,24.8849,OPERATIONAL
C1_376430000A_001003,大溪橋,桃園市,大溪區,桃園市335大溪區瑞安路一段273號,ChIJDQDEhlwZaDQRejZFHhM9iKo,中庄吊橋,4.5,1643,"['tourist_attraction', 'point_of_interest', 'establishment']",335台灣桃園市大溪區335,121.3033687,24.9048105,OPERATIONAL
C1_376430000A_001005,龍岡國旗屋,桃園市,中壢區,桃園市320中壢區龍平路215號,ChIJa__4ILh_DhQR3_8A4gEJ_Bw,國旗屋米干店,4.2,5887,"['restaurant', 'food', 'point_of_interest', 'establishment']",320台灣桃園市中壢區龍平路215號,121.2541149,24.9290761,OPERATIONAL
C1_376430000A_001006,中壢六和商圈,桃園市,中壢區,桃園市320中壢區中豐路、環北路、延平路及中美路所包圍之街區範圍,ChIJf0f3TDEiaDQRkpwkzgeOST4,中壢六和商圈,,0,['premise'],320台灣桃園市中壢區元化路357號中壢六和商圈,121.2236022,24.962725,
C1_376430000A_001008,龜山楓樹坑步道,桃園市,龜山區,桃園市333龜山區楓樹里光峰路281巷12弄,ChIJHyNBKnAeaDQR1_d4YV9j6lo,桃園楓樹坑步道,4.1,110,"['tourist_attraction', 'point_of_interest', 'establishment']",333台灣桃園市龜山區光峰路281巷12弄,121.3414675,25.0067426,OPERATIONAL
C1_376430000A_001008,龜山楓樹坑步道,桃園市,龜山區,桃園市333龜山區楓樹里光峰路281巷12弄,ChIJu7NFXXEfaDQR_791DQkk_9Q,楓樹坑生態步道,3.9,8,"['tourist_attraction', 'point_of_interest', 'establishment']",333台灣桃園市龜山區風尾街,121.3408302,25.0150638,OPERATIONAL
C1_376430000A_001009,虎頭山公園,桃園市,龜山區,桃園市330桃園區公園路42號,ChIJpWeyD14eaDQRfKFO3bEGa9k,虎頭山公園,4.4,17179,"['park', 'tourist_attraction', 'point_of_interest', 'establishment']",330台灣桃園市桃園區公園路42號,121.3309308,25.0017706,OPERATIONAL
C1_376430000A_001010,大溪慈湖步道,桃園市,大溪區,桃園市335大溪區復興路一段1097號,ChIJ2zondq8XaDQR-SqOGK7H4oM,後慈湖秘境步道,4.4,237,"['tourist_attraction', 'park', 'point_of_interest', 'establishment']",335台灣桃園市大溪區,121.3001514,24.8439474,OPERATIONAL
C1_376430000A_001010,大溪慈湖步道,桃園市,大溪區,桃園市335大溪區復興路一段1097號,ChIJ46qSpKgXaDQRvmipEKcQBVQ,後慈湖湖濱步道,4.4,70,"['park', 'point_of_interest', 'establishment']",335台灣桃園市大溪區,121.303672,24.842483,OPERATIONAL
C1_376430000A_001010,大溪慈湖步道,桃園市,大溪區,桃園市335大溪區復興路一段1097號,ChIJv1s1Nq4XaDQRL5JfRNCgYlc,前慈湖步道,3.9,51,"['park', 'point_of_interest', 'establishment']",335台灣桃園市大溪區復興路一段1097號,121.2947904,24.8406991,OPERATIONAL
C1_376430000A_001012,小烏來天空繩橋,桃園市,復興區,桃園市336復興區義盛里42號,ChIJcdJTfkERaDQRPpCTms-vrM8,天空繩橋,4.4,235,"['tourist_attraction', 'point_of_interest', 'establishment']",336台灣桃園市復興區義盛里,121.3744182,24.7897639,OPERATIONAL
C1_376430000A_001014,新街國小日式宿舍群,桃園市,中壢區,桃園市320中壢區延平路176號,ChIJtXj7CzoiaDQRe0k6S_1wC0M,新街國小日式宿舍,3.8,81,"['tourist_attraction', 'point_of_interest', 'establishment']",320台灣桃園市中壢區延平路176號,121.2281623,24.9642425,OPERATIONAL
C1_376430000A_001015,中壢老街溪步道、新街溪步道,桃園市,平鎮區,桃園市320中壢區平鎮區八字圳水岸公園至中壢環北路老街溪橋,ChIJ22-ffjMiaDQR9_kX6_STerI,老街溪河岸公園,4.2,947,"['park', 'tourist_attraction', 'point_of_interest', 'establishment']",324台灣桃園市平鎮區老街溪河濱步道,121.2190568,24.9598951,OPERATIONAL
C1_376430000A_001015,中壢老街溪步道、新街溪步道,桃園市,平鎮區,桃園市320中壢區平鎮區八字圳水岸公園至中壢環北路老街溪橋,ChIJp1Z2n5UjaDQRlbE2RFXjeSU,新街溪河濱步道,4.3,47,"['park', 'point_of_interest', 'establishment']",320台灣桃園市中壢區美隆橋,121.2348256,24.9662863,OPERATIONAL
C1_376430000A_001017,三龜戲水,桃園市,復興區,桃園市336復興區巴陵道路59號,ChIJWf9mR9NsaDQRYsrQ6VBWnis,三龜戲水觀景平台,4.4,386,"['tourist_attraction', 'point_of_interest', 'establishment']",336台灣桃園市復興區巴陵道路59號,121.3927912,24.68327,OPERATIONAL
C1_376430000A_001018,大慶洞,桃園市,大溪區,桃園市335大溪區大溪橋步道35號,ChIJMS8OnBgYaDQRquIQs4lvwzQ,大慶洞,4.2,86,"['tourist_attraction', 'point_of_interest', 'establishment']","號, No. 35大溪橋步道大溪區桃園市台灣 335",121.2852105,24.886233,OPERATIONAL
C1_376430000A_001019,爺亨梯田,桃園市,復興區,桃園市336復興區爺亨道路,ChIJAek2BblsaDQRJ6U_yViHii4,爺亨溫泉露營區,4.4,218,"['campground', 'lodging', 'park', 'point_of_interest', 'establishment']",336台灣桃園市復興區爺亨道路24號,121.3746501,24.6749124,OPERATIONAL
C1_376430000A_001019,爺亨梯田,桃園市,復興區,桃園市336復興區爺亨道路,ChIJNXPm-b5saDQR0I-dSMB2oCU,爺亨梯田農莊,4.1,122,"['lodging', 'point_of_interest', 'establishment']",336台灣桃園市復興區9號,121.3735243,24.6699959,OPERATIONAL
C1_376430000A_001118,華泰名品城,桃園市,中壢區,桃園市320中壢區春德路189號,ChIJ07yvOQYhaDQRaPvMMce7GJc,華泰名品城,4.2,45581,"['shopping_mall', 'point_of_interest', 'establishment']",320台灣桃園市中壢區春德路189號,121.2132261,25.0142027,OPERATIONAL
C1_376430000A_001162,大湳圖書館,桃園市,八德區,桃園市334八德區重慶街53巷2號,ChIJcwgbEn5_DhQR5ipAYjYFOEA,桃園市立圖書館 大湳分館,4.5,222,"['library', 'point_of_interest', 'establishment']",334台灣桃園市八德區重慶街53巷2號,121.3018152,24.9569309,OPERATIONAL
C1_376430000A_001163,阿姆坪薑母島,桃園市,大溪區,桃園市335大溪區環湖路,ChIJf93rPvYWaDQRXWC1c0bDUgY,阿姆坪遊艇碼頭,4.2,1485,"['travel_agency', 'point_of_interest', 'establishment']",335台灣桃園市大溪區環湖路二段548巷20號,121.3047314,24.8139087,OPERATIONAL
C1_376430000A_001163,阿姆坪薑母島,桃園市,大溪區,桃園市335大溪區環湖路,ChIJKSC8aOsXaDQR-Gt0o6kDrRg,薑母島,4.4,23,"['tourist_attraction', 'point_of_interest', 'establishment']",335台灣桃園市大溪區桃園市石門水庫,121.3113765,24.8089712,OPERATIONAL
C1_376430000A_001163,阿姆坪薑母島,桃園市,大溪區,桃園市335大溪區環湖路,ChIJcZzH4fQWaDQRYkx4ChW7dM4,薑母島碼頭,3.7,103,"['transit_station', 'point_of_interest', 'establishment']",335台灣桃園市大溪區,121.311285,24.8111021,OPERATIONAL
C1_376430000A_001163,阿姆坪薑母島,桃園市,大溪區,桃園市335大溪區環湖路,ChIJIfp64c4XaDQRB5j-hvQEs9M,薑母島遊艇碼頭,4.2,68,"['point_of_interest', 'establishment']",335台灣桃園市大溪區,121.3108873,24.8091246,OPERATIONAL
C1_376430000A_001163,阿姆坪薑母島,桃園市,大溪區,桃園市335大溪區環湖路,ChIJ-SMU1PQWaDQRP2jYn9hG-cI,薑母島百年土地公廟,4.4,68,"['place_of_worship', 'point_of_interest', 'establishment']",335台灣桃園市大溪區,121.3119744,24.8116421,OPERATIONAL
C1_376430000A_001163,阿姆坪薑母島,桃園市,大溪區,桃園市335大溪區環湖路,ChIJoXmbk14WaDQRkLJD_V6UH6o,阿姆坪生態園區,4.1,1839,"['park', 'tourist_attraction', 'point_of_interest', 'establishment']",335台灣桃園市大溪區,121.3039152,24.8146742,OPERATIONAL
C1_376430000A_001163,阿姆坪薑母島,桃園市,大溪區,桃園市335大溪區環湖路,ChIJfTo7oPcWaDQRYuQN0OQ5qm4,阿姆坪餐廳,4.2,511,"['restaurant', 'food', 'point_of_interest', 'establishment']",335台灣桃園市大溪區環湖路二段638號,121.3109548,24.818154,OPERATIONAL
C1_376430000A_001163,阿姆坪薑母島,桃園市,大溪區,桃園市335大溪區環湖路,ChIJM6IsrRkXaDQRP9nHTMU9h4s,景觀廁所,5.0,2,"['point_of_interest', 'establishment']",335台灣桃園市大溪區薑母島碼頭,121.3118398,24.81188,OPERATIONAL
C1_376430000A_001163,阿姆坪薑母島,桃園市,大溪區,桃園市335大溪區環湖路,ChIJU6_WWAgXaDQRqq1XFBKmjvs,薑母島軍史館,4.5,6,"['store', 'point_of_interest', 'establishment']",335台灣桃園市大溪區,121.3115404,24.8089368,OPERATIONAL
C1_376430000A_001163,阿姆坪薑母島,桃園市,大溪區,桃園市335大溪區環湖路,ChIJl-I_OWkXaDQRRtskHLy2AXI,松樹林碼頭,4.6,124,"['point_of_interest', 'establishment']",336台灣桃園市復興區石門水庫,121.3058519,24.8056305,OPERATIONAL
C1_376430000A_001163,阿姆坪薑母島,桃園市,大溪區,桃園市335大溪區環湖路,ChIJ80kVGPYWaDQRLDRaqiRDdAY,阿姆坪,,0,"['neighborhood', 'political']",335台灣桃園市大溪區阿姆坪,121.309036,24.816451,
C1_376430000A_001164,養樂多工廠,桃園市,中壢區,桃園市320中壢區自強一路4號,ChIJc6FvvB4iaDQRAO5TDTgW2CI,養樂多(中壢工廠),4.4,217,"['point_of_interest', 'food', 'establishment']",320台灣桃園市中壢區自強一路4號,121.2445724,24.9689194,OPERATIONAL
C1_376430000A_001165,歐萊德綠建築總部,桃園市,龍潭區,桃園市325龍潭區中豐路高平段18號,ChIJ0xdvhU48aDQRQiYxODYb7tc,歐萊德國際股份有限公司(綠建築總部),4.8,198,"['point_of_interest', 'establishment']",325021台灣桃園市龍潭區中豐路高平段18號,121.2109748,24.8404908,OPERATIONAL
C1_376430000A_001166,福源茶廠,桃園市,龍潭區,桃園市325龍潭區竹龍路590巷56號,ChIJVVVVlfE8aDQRn91zQee1uYk,福源茶廠,4.5,90,"['point_of_interest', 'store', 'food', 'establishment']",325台灣桃園市龍潭區竹龍路590巷56號,121.19349,24.8630468,OPERATIONAL
C1_376430000A_001167,中台環境資源教育中心,桃園市,觀音區,桃園市328觀音區環科路328號,ChIJc9pTOr4oaDQR_VQ0HO_6RSk,中台環境教育資源中心,2.6,8,"['school', 'point_of_interest', 'establishment']",328台灣桃園市觀音區環科路328號,121.0626169,25.0376901,OPERATIONAL
C1_376430000A_001168,CAFE!N x DICKIES 聯名咖啡觀光工廠 (源友咖啡文化園區),桃園市,平鎮區,桃園市324平鎮區工業五路8號,ChIJhZATXjQjaDQRED0CIY3tQCE,CAFE!N 硬咖啡 桃園總廠門市 ( DICKIES 聯名咖啡觀光工廠 ),4.4,1808,"['cafe', 'point_of_interest', 'food', 'establishment']",324台灣桃園市平鎮區工業五路8號,121.1979934,24.9022945,OPERATIONAL
C1_376430000A_001169,渴望園區,桃園市,龍潭區,桃園市325龍潭區渴望路185號,ChIJhxTzrhQ8aDQRh_3HCnTypfc,渴望園區,,0,"['neighborhood', 'political']",325台灣桃園市龍潭區渴望園區,121.1887271,24.8372785,
C1_376430000A_001171,南崁溪水岸公園,桃園市,蘆竹區,桃園市338蘆竹區南崁溪沿岸,ChIJGT7_0QugQjQRxKhANzJRFVI,南崁溪水岸自行車道（南崁段）,4.3,151,"['point_of_interest', 'establishment']",338台灣桃園市蘆竹區厚生路6號號,121.2812117,25.0568965,OPERATIONAL
C1_376430000A_001171,南崁溪水岸公園,桃園市,蘆竹區,桃園市338蘆竹區南崁溪沿岸,ChIJB8vEGeAfaDQRmL20WCMR-qQ,南崁溪人工溼地綠化園區,4.2,230,"['park', 'tourist_attraction', 'point_of_interest', 'establishment']",338台灣桃園市蘆竹區錦福路24號旁之水利地,121.283222,25.0498278,OPERATIONAL
C1_376430000A_001173,新南老街,桃園市,大溪區,桃園市335大溪區興和里中山路,ChIJV4-NsSEYaDQRehE3Job7Jmg,新南老街 (中山老街),4.2,590,"['tourist_attraction', 'point_of_interest', 'establishment']",335台灣桃園市大溪區中山路26號,121.2865638,24.8817384,OPERATIONAL
C1_376430000A_001176,八德茄苳霄裡陽光鐵馬道,桃園市,八德區,桃園市334八德區竹園里魚池下14號(起點),ChIJa_dDgbAYaDQReZ_gbmJlwP4,茄苳溪自行車道（茄苳霄裡陽光鐵馬道）,3.9,52,"['park', 'point_of_interest', 'establishment']",334台灣桃園市八德區永豐南路31巷,121.2768819,24.9534802,OPERATIONAL
C1_376430000A_001177,舊百吉隧道,桃園市,大溪區,桃園市335大溪區北橫公路，過慈湖，約台七線5公里處,ChIJ2zgULKsXaDQReDqcDHsUe8g,335桃園市大溪區舊百吉隧道,,0,['route'],335台灣桃園市大溪區舊百吉隧道,121.3034875,24.8338652,
C1_376430000A_001178,青林農場,桃園市,觀音區,桃園市328觀音區大堀里大湖路二段131-1號,ChIJfXd-J4ImaDQR3-njtsGa40s,青林農場,4.0,1520,"['point_of_interest', 'establishment']",328台灣桃園市觀音區大湖路二段131之1號,121.1333134,24.9950826,OPERATIONAL
C1_376430000A_001179,大艽芎古道,桃園市,大溪區,桃園市335大溪區頭寮竹篙厝,ChIJEy05ZMoXaDQRIOFlh0XwFmo,大艽芎古道,4.2,883,"['tourist_attraction', 'park', 'point_of_interest', 'establishment']",335台灣桃園市大溪區,121.2844149,24.8307036,OPERATIONAL
C1_376430000A_001180,大漢橋,桃園市,復興區,桃園市336復興區北橫公路約50公里處,ChIJE6Iw8jkRaDQR2wn0Z2DZ4Js,復興橋,4.3,525,"['point_of_interest', 'establishment']",336台灣桃園市復興區復興橋,121.3663274,24.8012015,OPERATIONAL
